{
  "version": 0.6,
  "generator": "Overpass API 0.7.61.5 4133829e",
  "osm3s": {
    "timestamp_osm_base": "2023-11-12T18:23:45Z",
    "timestamp_areas_base": "2023-11-12T14:43:00Z",
    "copyright": "The data included in this document is from www.openstreetmap.org. The data is made available under ODbL."
  },
  "elements": [

{
  "type": "node",
  "id": 172348137,
  "lat": 42.0057090,
  "lon": 21.4174425,
  "tags": {
    "contact:phone": "+38923117669",
    "fee": "yes",
    "name": "Природонаучен Музеј",
    "name:en": "Macedonian Museum of Natural History",
    "name:pl": "Muzeum Przyrodnicze",
    "name:tr": "Ulusal Tarih Müzesi",
    "opening_hours": "Tu-Su 09:00-16:00",
    "tourism": "museum",
    "wikidata": "Q20567394",
    "wikimedia_commons": "Category:Macedonian Museum of Natural History",
    "wikipedia": "mk:Природонаучен музеј на Македонија"
  }
},
{
  "type": "node",
  "id": 332045703,
  "lat": 42.0111578,
  "lon": 20.8825858,
  "tags": {
    "amenity": "place_of_worship",
    "denomination": "orthodox",
    "name": "Св. Наум Охридски - Чудотворец",
    "religion": "christian"
  }
},
{
  "type": "node",
  "id": 373488475,
  "lat": 42.0192462,
  "lon": 20.9598834,
  "tags": {
    "amenity": "place_of_worship",
    "denomination": "orthodox",
    "name": "Св. Атанасиј",
    "name:en": "St Athanasius Church",
    "religion": "christian"
  }
},
{
  "type": "node",
  "id": 390757439,
  "lat": 41.1155576,
  "lon": 20.7914836,
  "tags": {
    "historic": "archaeological_site",
    "name": "Лихнид",
    "name:la": "Lychnidos",
    "wikipedia": "it:Lychnidos"
  }
},
{
  "type": "node",
  "id": 414202918,
  "lat": 41.2824000,
  "lon": 21.3604239,
  "tags": {
    "amenity": "place_of_worship",
    "religion": "christian"
  }
},
{
  "type": "node",
  "id": 434806407,
  "lat": 41.0128756,
  "lon": 21.2463892,
  "tags": {
    "amenity": "place_of_worship",
    "religion": "christian"
  }
},
{
  "type": "node",
  "id": 446094520,
  "lat": 41.9221786,
  "lon": 22.4468081,
  "tags": {
    "amenity": "place_of_worship",
    "denomination": "orthodox",
    "int_name": "Sv. Atanasij Велики",
    "name": "Св. Атанасиј Велики",
    "name:en": "St. Athanasius",
    "religion": "christian"
  }
},
{
  "type": "node",
  "id": 470409981,
  "lat": 42.0690911,
  "lon": 21.3001786,
  "tags": {
    "amenity": "place_of_worship",
    "building": "monastery",
    "denomination": "orthodox",
    "name": "Манастир Св. Ѓорѓија",
    "population": "0",
    "religion": "christian",
    "tourism": "attraction",
    "wikidata": "Q24084121",
    "wikipedia": "mk:Црква „Св. Ѓорѓи“ - Кучково"
  }
},
{
  "type": "node",
  "id": 470410341,
  "lat": 42.0385762,
  "lon": 21.3307823,
  "tags": {
    "amenity": "place_of_worship",
    "denomination": "orthodox",
    "name": "Sv. Mala Bogorodica",
    "population": "0",
    "religion": "christian"
  }
},
{
  "type": "node",
  "id": 473402602,
  "lat": 41.2571977,
  "lon": 21.2075541,
  "tags": {
    "amenity": "place_of_worship",
    "denomination": "orthodox",
    "religion": "christian"
  }
},
{
  "type": "node",
  "id": 478699817,
  "lat": 41.7077548,
  "lon": 22.8566138,
  "tags": {
    "name": "Музеј на град Берово",
    "name:en": "Berovo Town Museum",
    "tourism": "museum",
    "website": "http://www.berovo.gov.mk/index.php?option=com_content&view=article&id=76&Itemid=117"
  }
},
{
  "type": "node",
  "id": 487144996,
  "lat": 41.4457370,
  "lon": 21.9811109,
  "tags": {
    "amenity": "place_of_worship",
    "denomination": "orthodox",
    "name": "Manastir Sv. Spas",
    "religion": "christian"
  }
},
{
  "type": "node",
  "id": 499973497,
  "lat": 41.7010390,
  "lon": 22.8590180,
  "tags": {
    "amenity": "place_of_worship",
    "building": "yes",
    "denomination": "orthodox",
    "name": "Манастир Св. Архангел Михаил",
    "name:en": "Monastery",
    "religion": "christian",
    "tourism": "attraction"
  }
},
{
  "type": "node",
  "id": 499973498,
  "lat": 41.7067630,
  "lon": 22.8570672,
  "tags": {
    "amenity": "place_of_worship",
    "denomination": "orthodox",
    "name": "Црква Рождество на Пресв. Богородица",
    "name:en": "Nativity of the Theotokos Church",
    "religion": "christian"
  }
},
{
  "type": "node",
  "id": 503526281,
  "lat": 41.7443530,
  "lon": 20.6993512,
  "tags": {
    "amenity": "place_of_worship",
    "denomination": "orthodox",
    "name": "Sv. Dimitrija",
    "name:mk": "Св. Димитрија",
    "religion": "christian"
  }
},
{
  "type": "node",
  "id": 513836478,
  "lat": 41.9639150,
  "lon": 22.7749405,
  "tags": {
    "addr:city": "Делчево",
    "addr:postcode": "2320",
    "addr:street": "Кеј на Слободата",
    "amenity": "place_of_worship",
    "denomination": "orthodox",
    "name": "Св. Богородица",
    "name:en": "Sv. Bogodorica",
    "religion": "christian"
  }
},
{
  "type": "node",
  "id": 529411995,
  "lat": 42.0234766,
  "lon": 21.3427234,
  "tags": {
    "amenity": "place_of_worship",
    "denomination": "orthodox",
    "int_name": "Sv. Arhangel Gavril",
    "name": "Св. Архангел Гаврил",
    "religion": "christian"
  }
},
{
  "type": "node",
  "id": 529811458,
  "lat": 41.4343634,
  "lon": 22.0163228,
  "tags": {
    "name": "Музеј Галерија Кавадарци",
    "name:en": "Muzej Galerija Kavadarci",
    "tourism": "museum"
  }
},
{
  "type": "node",
  "id": 534925163,
  "lat": 41.1123610,
  "lon": 20.7961416,
  "tags": {
    "addr:housenumber": "62",
    "addr:street": "Цар Самоил",
    "building": "house",
    "int_name": "Robev Family House",
    "name": "Куќа на Робевци",
    "name:en": "Robev Family House",
    "name:fr": "Maison de la famille Robev — Musée archéologique de la ville",
    "name:tr": "Robevi Evi",
    "name:zh": "罗贝夫家族宅邸国家博物馆",
    "opening_hours": "Tu-Su 09:00-14:00",
    "tourism": "museum",
    "website": "http://muzejohrid.mk/en/house-of-robev-family"
  }
},
{
  "type": "node",
  "id": 568027812,
  "lat": 41.1814338,
  "lon": 20.6777233,
  "tags": {
    "amenity": "place_of_worship",
    "name": "Св.Петка",
    "religion": "christian"
  }
},
{
  "type": "node",
  "id": 586460560,
  "lat": 41.9230028,
  "lon": 21.4887814,
  "tags": {
    "amenity": "place_of_worship",
    "religion": "muslim"
  }
},
{
  "type": "node",
  "id": 588949051,
  "lat": 41.9188485,
  "lon": 21.4796852,
  "tags": {
    "amenity": "place_of_worship",
    "religion": "muslim"
  }
},
{
  "type": "node",
  "id": 850569973,
  "lat": 42.2651061,
  "lon": 21.9531678,
  "tags": {
    "amenity": "place_of_worship",
    "name": "Кокино",
    "religion": "christian"
  }
},
{
  "type": "node",
  "id": 924623193,
  "lat": 41.6350875,
  "lon": 22.4677492,
  "tags": {
    "amenity": "place_of_worship",
    "int_name": "Sv.Trojca",
    "name": "Св.Тројца",
    "name:en": "Sv.Trojca",
    "religion": "christian",
    "tourism": "attraction"
  }
},
{
  "type": "node",
  "id": 1088079170,
  "lat": 41.8814412,
  "lon": 22.3307293,
  "tags": {
    "amenity": "place_of_worship"
  }
},
{
  "type": "node",
  "id": 1088079205,
  "lat": 41.8820608,
  "lon": 22.3328605,
  "tags": {
    "amenity": "place_of_worship",
    "denomination": "orthodox",
    "int_name": "Sv. Nedela",
    "name": "Св. Недела",
    "name:en": "Holy Sunday Church",
    "religion": "christian"
  }
},
{
  "type": "node",
  "id": 1207216943,
  "lat": 41.1187289,
  "lon": 20.8055843,
  "tags": {
    "amenity": "place_of_worship",
    "denomination": "sunni",
    "loc_name": "Крст џамија",
    "name": "Џамија Хаџи-Дургут",
    "name:en": "Haji Durgut Mosque",
    "religion": "muslim"
  }
},
{
  "type": "node",
  "id": 1272898175,
  "lat": 41.8841902,
  "lon": 22.5049622,
  "tags": {
    "addr:housenumber": "1a",
    "name": "Museum Teracotta",
    "tourism": "museum"
  }
},
{
  "type": "node",
  "id": 1272929082,
  "lat": 41.8821196,
  "lon": 22.5054658,
  "tags": {
    "amenity": "place_of_worship",
    "denomination": "orthodox",
    "name": "Св. Архангел Михаил",
    "religion": "christian"
  }
},
{
  "type": "node",
  "id": 1475324917,
  "lat": 42.0609829,
  "lon": 21.3489729,
  "tags": {
    "amenity": "place_of_worship",
    "denomination": "orthodox",
    "is_in": "Orman",
    "name": "Манастир Св. 40 Маченици",
    "religion": "christian"
  }
},
{
  "type": "node",
  "id": 1475328742,
  "lat": 42.0586697,
  "lon": 21.3527926,
  "tags": {
    "historic": "archaeological_site",
    "is_in": "Orman",
    "name": "Rimska crkva"
  }
},
{
  "type": "node",
  "id": 1475331128,
  "lat": 42.0598924,
  "lon": 21.2983618,
  "tags": {
    "amenity": "place_of_worship",
    "building": "church",
    "denomination": "orthodox",
    "name": "Св. Атанас",
    "religion": "christian"
  }
},
{
  "type": "node",
  "id": 1475331129,
  "lat": 42.0843452,
  "lon": 21.3548716,
  "tags": {
    "archaeological_site": "fortification",
    "historic": "archaeological_site",
    "int_name": "Davina Kula",
    "name": "Давина Кула",
    "name:en": "Davina Kula"
  }
},
{
  "type": "node",
  "id": 1475333181,
  "lat": 42.0587494,
  "lon": 21.2786993,
  "tags": {
    "historic": "archaeological_site",
    "name": "Голема Кула - Кучково"
  }
},
{
  "type": "node",
  "id": 1475333182,
  "lat": 42.0585741,
  "lon": 21.2844339,
  "tags": {
    "historic": "archaeological_site",
    "name": "Мала Кула - Кучково"
  }
},
{
  "type": "node",
  "id": 1475334320,
  "lat": 42.0608563,
  "lon": 21.3158452,
  "tags": {
    "amenity": "place_of_worship",
    "denomination": "orthodox",
    "name": "Crkva Sv.Tripun",
    "religion": "christian"
  }
},
{
  "type": "node",
  "id": 1475356446,
  "lat": 42.0493212,
  "lon": 21.3388559,
  "tags": {
    "amenity": "place_of_worship",
    "is_in": "Volkovo",
    "name": "Св. Петка",
    "religion": "christian"
  }
},
{
  "type": "node",
  "id": 1475356449,
  "lat": 42.0500064,
  "lon": 21.3393280,
  "tags": {
    "amenity": "place_of_worship",
    "denomination": "orthodox",
    "is_in": "Volkovo",
    "name": "Св. Атанас",
    "religion": "christian"
  }
},
{
  "type": "node",
  "id": 1576507637,
  "lat": 42.1259051,
  "lon": 21.5968771,
  "tags": {
    "amenity": "place_of_worship",
    "religion": "muslim"
  }
},
{
  "type": "node",
  "id": 1734402559,
  "lat": 42.0516811,
  "lon": 21.3110834,
  "tags": {
    "amenity": "place_of_worship",
    "denomination": "orthodox",
    "name": "Sv. Krstovden",
    "religion": "christian"
  }
},
{
  "type": "node",
  "id": 1734405545,
  "lat": 42.0592027,
  "lon": 21.3083108,
  "tags": {
    "amenity": "place_of_worship",
    "denomination": "orthodox",
    "name": "Sv. Spas-Kuckovo",
    "religion": "christian"
  }
},
{
  "type": "node",
  "id": 1734566388,
  "lat": 42.0660807,
  "lon": 21.3357012,
  "tags": {
    "amenity": "place_of_worship",
    "is_in": "Никиштане",
    "name": "Џамија Никиштане",
    "religion": "muslim"
  }
},
{
  "type": "node",
  "id": 1734579717,
  "lat": 42.0698583,
  "lon": 21.3939664,
  "tags": {
    "amenity": "place_of_worship",
    "denomination": "orthodox",
    "religion": "christian"
  }
},
{
  "type": "node",
  "id": 1734593430,
  "lat": 42.0766913,
  "lon": 21.3988480,
  "tags": {
    "historic": "archaeological_site",
    "name": "Gradiste kaj s.Brazda"
  }
},
{
  "type": "node",
  "id": 1734617087,
  "lat": 42.1076532,
  "lon": 21.3799578,
  "tags": {
    "amenity": "place_of_worship",
    "denomination": "orthodox",
    "int_name": "Св. Nikita",
    "name": "Св. Никита",
    "place_of_worship:type": "monastery",
    "religion": "christian"
  }
},
{
  "type": "node",
  "id": 1735110375,
  "lat": 42.0540808,
  "lon": 21.3135461,
  "tags": {
    "amenity": "place_of_worship",
    "denomination": "orthodox",
    "name": "Sv.Petka-Kuckovo",
    "religion": "christian"
  }
},
{
  "type": "node",
  "id": 1790461639,
  "lat": 41.3809777,
  "lon": 22.8122120,
  "tags": {
    "amenity": "place_of_worship",
    "name": "Evangelic-Methodist Church",
    "religion": "christian"
  }
},
{
  "type": "node",
  "id": 1804911443,
  "lat": 40.9131639,
  "lon": 21.1797470,
  "tags": {
    "amenity": "place_of_worship",
    "denomination": "orthodox",
    "int_name": "Sv. Ilija",
    "name": "Св. Илија",
    "religion": "christian"
  }
},
{
  "type": "node",
  "id": 1804963753,
  "lat": 40.9131005,
  "lon": 20.7415162,
  "tags": {
    "amenity": "place_of_worship",
    "building": "church",
    "denomination": "orthodox",
    "name": "Црква Света Петка",
    "name:en": "Saint Petka Church",
    "religion": "christian",
    "tourism": "attraction"
  }
},
{
  "type": "node",
  "id": 1810969277,
  "lat": 41.1175675,
  "lon": 20.8137550,
  "tags": {
    "amenity": "place_of_worship",
    "denomination": "orthodox",
    "name": "Црква Св. Ѓoрѓијa",
    "name:en": "St. Gjorgjija Church",
    "name:mk": "Црква Св. Ѓoрѓијa",
    "religion": "christian"
  }
},
{
  "type": "node",
  "id": 1831180502,
  "lat": 41.9505936,
  "lon": 21.2991931,
  "tags": {
    "amenity": "place_of_worship",
    "denomination": "orthodox",
    "historic": "monument",
    "int_name": "Manastir Sv. Andrej",
    "name": "Манастир Св. Андреј",
    "name:en": "Monastery St. Andrej",
    "name:pl": "Cerkiew św. Andrzeja",
    "name:tr": "Monastery St. Andrej",
    "place_of_worship:type": "monastery",
    "religion": "christian",
    "tourism": "attraction"
  }
},
{
  "type": "node",
  "id": 1831247821,
  "lat": 41.9518330,
  "lon": 21.3042042,
  "tags": {
    "amenity": "place_of_worship",
    "denomination": "orthodox",
    "int_name": "Sv. Nikola",
    "name": "Св. Никола",
    "place_of_worship:type": "monastery",
    "religion": "christian",
    "tourism": "attraction"
  }
},
{
  "type": "node",
  "id": 1850562883,
  "lat": 42.0550347,
  "lon": 21.4554709,
  "tags": {
    "amenity": "place_of_worship",
    "name": "с.в Наум Охридски",
    "religion": "christian"
  }
},
{
  "type": "node",
  "id": 1850567836,
  "lat": 42.0719506,
  "lon": 21.4487798,
  "tags": {
    "amenity": "place_of_worship",
    "name": "Пресвета Богородица",
    "religion": "christian"
  }
},
{
  "type": "node",
  "id": 1853704787,
  "lat": 41.1871817,
  "lon": 22.7221034,
  "tags": {
    "name": "Музеј на Дојран",
    "tourism": "museum"
  }
},
{
  "type": "node",
  "id": 1855631088,
  "lat": 41.9857725,
  "lon": 21.4312278,
  "tags": {
    "amenity": "place_of_worship",
    "denomination": "orthodox",
    "name": "Света Петка",
    "religion": "christian",
    "wikidata": "Q12911930",
    "wikimedia_commons": "Category:St. Petka Church (Crniče)"
  }
},
{
  "type": "node",
  "id": 1864402613,
  "lat": 42.0604971,
  "lon": 21.2958493,
  "tags": {
    "amenity": "place_of_worship",
    "building": "church",
    "denomination": "orthodox",
    "name": "Св. Илија",
    "religion": "christian"
  }
},
{
  "type": "node",
  "id": 1879436069,
  "lat": 42.1706665,
  "lon": 21.8098380,
  "tags": {
    "historic": "archaeological_site",
    "historic:civilization": "prehistoric",
    "name": "Костоперска Карпа",
    "tourism": "attraction",
    "wikidata": "Q20570399",
    "wikipedia": "mk:Костоперска Карпа"
  }
},
{
  "type": "node",
  "id": 1879461479,
  "lat": 42.2633818,
  "lon": 21.9531180,
  "tags": {
    "archaeological_site": "megalith",
    "historic": "archaeological_site",
    "historic:period": "Bronze Age",
    "name": "Кокино",
    "name:mk": "Кокино",
    "tourism": "attraction",
    "wikidata": "Q1326977",
    "wikipedia": "mk:Кокино (локалитет)"
  }
},
{
  "type": "node",
  "id": 1964069865,
  "lat": 41.7882229,
  "lon": 21.9410619,
  "tags": {
    "amenity": "place_of_worship",
    "denomination": "orthodox",
    "int_name": "Sv. Bogorodica",
    "name": "Св. Богородица",
    "name:en": "Holy Mother of God",
    "religion": "christian"
  }
},
{
  "type": "node",
  "id": 1972521921,
  "lat": 41.0430407,
  "lon": 21.0056909,
  "tags": {
    "amenity": "place_of_worship",
    "religion": "muslim"
  }
},
{
  "type": "node",
  "id": 1999950866,
  "lat": 41.4085959,
  "lon": 22.2447656,
  "tags": {
    "name": "Museum of Wine",
    "name:mk": "Музеј на Биното",
    "tourism": "museum"
  }
},
{
  "type": "node",
  "id": 1999950879,
  "lat": 41.4091983,
  "lon": 22.2367525,
  "tags": {
    "amenity": "place_of_worship",
    "denomination": "macedonian_orthodox",
    "int_name": "Sv. Bogorodica",
    "name": "Св. Богородица",
    "name:en": "Mother of God",
    "religion": "christian"
  }
},
{
  "type": "node",
  "id": 2016287616,
  "lat": 41.3842763,
  "lon": 22.2918792,
  "tags": {
    "alt_name": "St. John's Church",
    "amenity": "place_of_worship",
    "denomination": "macedonian_orthodox",
    "name": "Св. Талалеј",
    "religion": "christian",
    "start_date": "1800"
  }
},
{
  "type": "node",
  "id": 2016289389,
  "lat": 41.3831513,
  "lon": 22.2878614,
  "tags": {
    "amenity": "place_of_worship",
    "denomination": "macedonian_orthodox",
    "int_name": "Manastir Sv. Nikola",
    "name": "Манастир Св. Никола",
    "name:en": "Monastery St. Nicholas",
    "religion": "christian"
  }
},
{
  "type": "node",
  "id": 2023133071,
  "lat": 41.9997804,
  "lon": 21.8606921,
  "tags": {
    "amenity": "place_of_worship",
    "denomination": "orthodox",
    "name": "Св. Петка",
    "religion": "christian"
  }
},
{
  "type": "node",
  "id": 2026807108,
  "lat": 41.8289199,
  "lon": 21.6864385,
  "tags": {
    "amenity": "place_of_worship",
    "denomination": "orthodox",
    "name": "Manastir Sveta Bogorodica",
    "name:mk": "Манастир Св. Богородица",
    "religion": "christian",
    "tourism": "attraction"
  }
},
{
  "type": "node",
  "id": 2026906941,
  "lat": 41.5132230,
  "lon": 20.9609726,
  "tags": {
    "amenity": "place_of_worship",
    "name": "Hayati Baba Teqe",
    "religion": "muslim"
  }
},
{
  "type": "node",
  "id": 2026912080,
  "lat": 41.5132572,
  "lon": 20.9697086,
  "tags": {
    "amenity": "place_of_worship",
    "religion": "muslim"
  }
},
{
  "type": "node",
  "id": 2026915603,
  "lat": 41.5121875,
  "lon": 20.9617402,
  "tags": {
    "amenity": "place_of_worship",
    "name": "Çulu Baba Teqe",
    "religion": "muslim"
  }
},
{
  "type": "node",
  "id": 2026921927,
  "lat": 41.5181592,
  "lon": 20.9658609,
  "tags": {
    "amenity": "place_of_worship",
    "name": "Balla Mëhalla",
    "religion": "muslim"
  }
},
{
  "type": "node",
  "id": 2026975410,
  "lat": 41.2775784,
  "lon": 22.4937679,
  "tags": {
    "historic": "archaeological_site",
    "name": "Isar / Idomenae"
  }
},
{
  "type": "node",
  "id": 2051569337,
  "lat": 41.0738678,
  "lon": 20.8043628,
  "tags": {
    "amenity": "place_of_worship",
    "denomination": "orthodox",
    "int_name": "Sv. Stefan",
    "name": "Св. Стефан",
    "name:en": "St. Stephen",
    "name:lt": "Šv. Stefanas",
    "natural": "cave_entrance",
    "religion": "christian",
    "tourism": "attraction",
    "wikidata": "Q12293256",
    "wikipedia": "mk:Црква „Св. Стефан“ - Панцир"
  }
},
{
  "type": "node",
  "id": 2279507279,
  "lat": 41.1805738,
  "lon": 20.6776078,
  "tags": {
    "name": "Д-р Никола Незлобински",
    "tourism": "museum"
  }
},
{
  "type": "node",
  "id": 2323236969,
  "lat": 41.1423016,
  "lon": 22.5090711,
  "tags": {
    "tourism": "museum"
  }
},
{
  "type": "node",
  "id": 2373710718,
  "lat": 42.0836218,
  "lon": 21.9862589,
  "tags": {
    "historic": "archaeological_site",
    "int_name": "Cocev Kamen",
    "name": "Цоцев Камен",
    "name:en": "Cocev Kamen",
    "place": "locality",
    "tourism": "attraction",
    "wikidata": "Q599269"
  }
},
{
  "type": "node",
  "id": 2381908566,
  "lat": 40.9820235,
  "lon": 21.7749801,
  "tags": {
    "amenity": "place_of_worship",
    "denomination": "orthodox",
    "name": "Св. Преображение",
    "religion": "christian"
  }
},
{
  "type": "node",
  "id": 2389661329,
  "lat": 42.0096173,
  "lon": 21.3188246,
  "tags": {
    "amenity": "place_of_worship",
    "religion": "muslim"
  }
},
{
  "type": "node",
  "id": 2411429061,
  "lat": 41.8286581,
  "lon": 21.6894737,
  "tags": {
    "amenity": "place_of_worship",
    "denomination": "orthodox",
    "name": "Manastir Sveti Jovan",
    "name:mk": "Св. Јован Крстител",
    "religion": "christian",
    "tourism": "attraction"
  }
},
{
  "type": "node",
  "id": 2472713588,
  "lat": 42.1507701,
  "lon": 21.7322948,
  "tags": {
    "amenity": "place_of_worship",
    "denomination": "orthodox",
    "name": "Св. Архангел Михаил",
    "religion": "christian"
  }
},
{
  "type": "node",
  "id": 2535151449,
  "lat": 41.4182976,
  "lon": 22.0180718,
  "tags": {
    "amenity": "place_of_worship",
    "building": "yes",
    "denomination": "orthodox",
    "name": "Успение на Пресвета Богородица",
    "religion": "christian"
  }
},
{
  "type": "node",
  "id": 2535153634,
  "lat": 41.4184594,
  "lon": 22.0181317,
  "tags": {
    "name": "Спомен куќа на Страшо Пинџур",
    "name:de": "Gedenkstätte Haus - Strascho Pindjur",
    "name:en": "Memorial house - Strasho Pindjur",
    "tourism": "museum"
  }
},
{
  "type": "node",
  "id": 2545347133,
  "lat": 41.0043605,
  "lon": 20.9368812,
  "tags": {
    "amenity": "place_of_worship",
    "denomination": "orthodox",
    "religion": "christian"
  }
},
{
  "type": "node",
  "id": 2562687515,
  "lat": 42.0143848,
  "lon": 22.4743204,
  "tags": {
    "amenity": "place_of_worship",
    "denomination": "orthodox",
    "name": "Св. Симеон Столпник",
    "religion": "christian"
  }
},
{
  "type": "node",
  "id": 2574272024,
  "lat": 42.1760396,
  "lon": 22.2929614,
  "tags": {
    "addr:city": "Крива Паланка",
    "addr:housename": "с.конопница",
    "addr:postcode": "1330",
    "addr:street": "Конопница",
    "amenity": "place_of_worship",
    "denomination": "orthodox",
    "name": "Теодор Тирон",
    "religion": "christian"
  }
},
{
  "type": "node",
  "id": 2578029313,
  "lat": 42.2020133,
  "lon": 22.3348959,
  "tags": {
    "addr:city": "Kriva Palanka",
    "addr:postcode": "1330",
    "addr:street": "Sveti Joakim Osogovski",
    "name": "City Museum",
    "tourism": "museum"
  }
},
{
  "type": "node",
  "id": 2592611970,
  "lat": 41.9289057,
  "lon": 21.5229042,
  "tags": {
    "amenity": "place_of_worship",
    "denomination": "orthodox",
    "name": "Св.Петка",
    "religion": "christian"
  }
},
{
  "type": "node",
  "id": 2670727638,
  "lat": 41.4350382,
  "lon": 22.6401158,
  "tags": {
    "amenity": "place_of_worship",
    "name": "Католичка црква"
  }
},
{
  "type": "node",
  "id": 2829462221,
  "lat": 42.0853984,
  "lon": 21.9627449,
  "tags": {
    "historic": "archaeological_site",
    "name": "Мачка камен",
    "name:en": "Macka kamen"
  }
},
{
  "type": "node",
  "id": 2884502200,
  "lat": 41.9853082,
  "lon": 21.4716123,
  "tags": {
    "amenity": "place_of_worship",
    "religion": "christian"
  }
},
{
  "type": "node",
  "id": 2884502203,
  "lat": 41.9832841,
  "lon": 21.4764262,
  "tags": {
    "amenity": "place_of_worship",
    "religion": "christian"
  }
},
{
  "type": "node",
  "id": 2884502204,
  "lat": 41.9858681,
  "lon": 21.4684081,
  "tags": {
    "amenity": "place_of_worship",
    "denomination": "orthodox",
    "name": "Црква „Рождество на Пресвета Богородица“ - Ново Лисиче",
    "religion": "christian",
    "wikidata": "Q61120872",
    "wikimedia_commons": "Category:Nativity of the Theotokos Church (Novo Lisiče)",
    "wikipedia": "mk:Црква „Рождество на Пресвета Богородица“ - Ново Лисиче"
  }
},
{
  "type": "node",
  "id": 2884502205,
  "lat": 41.9783403,
  "lon": 21.4961010,
  "tags": {
    "addr:street": "Ѓорѓи Капчев",
    "amenity": "place_of_worship",
    "denomination": "orthodox",
    "name": "Црква „Св. Великомаченик Георгиј“",
    "religion": "christian",
    "wikidata": "Q109773475",
    "wikipedia": "mk:Црква „Св. Великомаченик Георгиј“ - Горно Лисиче"
  }
},
{
  "type": "node",
  "id": 2887575436,
  "lat": 41.9644772,
  "lon": 21.4936632,
  "tags": {
    "addr:city": "Скопје",
    "addr:postcode": "1000",
    "addr:street": "Горно Лисиче",
    "amenity": "place_of_worship",
    "name": "Црква „Св. Апостоли Петар и Павле“",
    "name:en": "Saints Peter and Paul the Apostles Church",
    "name:mk": "Црква „Св. Апостоли Петар и Павле“",
    "wikidata": "Q20569488",
    "wikimedia_commons": "Category:Sts. Peter and Paul Church (Gorno Lisiče)",
    "wikipedia": "mk:Црква „Св. Апостоли Петар и Павле“ - Горно Лисиче"
  }
},
{
  "type": "node",
  "id": 2933604200,
  "lat": 41.8672643,
  "lon": 22.4818580,
  "tags": {
    "denomination": "orthodox",
    "name": "Црква св.Јован Крстител",
    "name:mk": "св.Јован Крстител",
    "religion": "christian"
  }
},
{
  "type": "node",
  "id": 3011061689,
  "lat": 41.0527880,
  "lon": 20.8128079,
  "tags": {
    "amenity": "place_of_worship",
    "building": "church",
    "denomination": "orthodox",
    "name": "Sv. Mina",
    "religion": "christian"
  }
},
{
  "type": "node",
  "id": 3011061690,
  "lat": 41.0596796,
  "lon": 20.8135106,
  "tags": {
    "denomination": "orthodox",
    "historic": "wayside_shrine",
    "name": "Sv. Nikola",
    "religion": "christian",
    "tourism": "attraction"
  }
},
{
  "type": "node",
  "id": 3011066257,
  "lat": 41.1164880,
  "lon": 20.8001190,
  "tags": {
    "amenity": "place_of_worship",
    "denomination": "sunni",
    "name": "Зејнел Абидин-пашина џамија",
    "name:en": "Zeynel Abidin Pasha Mosque",
    "name:tr": "Pir Muhammed Mehmed Hayati Halveti Dergah ve Türbesi",
    "religion": "muslim"
  }
},
{
  "type": "node",
  "id": 3039868345,
  "lat": 41.8829405,
  "lon": 20.9917833,
  "tags": {
    "addr:city": "Tenovo",
    "amenity": "place_of_worship",
    "name": "Црква „Св. Недела“ - Теново",
    "religion": "christian"
  }
},
{
  "type": "node",
  "id": 3109743674,
  "lat": 41.1611747,
  "lon": 22.5011826,
  "tags": {
    "amenity": "place_of_worship",
    "denomination": "orthodox",
    "religion": "christian"
  }
},
{
  "type": "node",
  "id": 3175764807,
  "lat": 42.0594793,
  "lon": 21.5096450,
  "tags": {
    "addr:city": "cresevo",
    "amenity": "place_of_worship",
    "denomination": "orthodox",
    "name": "Manastir Svetka Petka",
    "religion": "christian"
  }
},
{
  "type": "node",
  "id": 3263433907,
  "lat": 41.4748537,
  "lon": 22.5651714,
  "tags": {
    "amenity": "place_of_worship",
    "denomination": "orthodox",
    "name": "Манастир Св. Богородица Елеуса",
    "name:en": "Monastery of the Mother of God Eleusa",
    "religion": "christian",
    "tourism": "attraction"
  }
},
{
  "type": "node",
  "id": 3263474161,
  "lat": 41.4505759,
  "lon": 22.5902413,
  "tags": {
    "amenity": "place_of_worship",
    "denomination": "orthodox",
    "name": "Манастир Св. Леонтиј",
    "name:en": "St. Leontius Monastery",
    "religion": "christian",
    "tourism": "attraction"
  }
},
{
  "type": "node",
  "id": 3499469386,
  "lat": 41.7959966,
  "lon": 20.9179313,
  "tags": {
    "amenity": "place_of_worship",
    "denomination": "orthodox",
    "name": "Sveta Petka",
    "religion": "christian"
  }
},
{
  "type": "node",
  "id": 3650611402,
  "lat": 41.7004213,
  "lon": 21.0333308,
  "tags": {
    "amenity": "place_of_worship",
    "denomination": "orthodox",
    "name": "Манастир Св. Никола",
    "religion": "christian"
  }
},
{
  "type": "node",
  "id": 3660971795,
  "lat": 41.0518754,
  "lon": 21.1673647,
  "tags": {
    "amenity": "place_of_worship",
    "denomination": "orthodox",
    "name": "Manastir Sveta petka",
    "religion": "christian"
  }
},
{
  "type": "node",
  "id": 3668592669,
  "lat": 41.9769543,
  "lon": 21.4084150,
  "tags": {
    "alt_name": "Црква „Мала Богородица Водњанска“",
    "amenity": "place_of_worship",
    "denomination": "orthodox",
    "name": "Црква „Рождество на Пресвета Богородица“",
    "religion": "christian"
  }
},
{
  "type": "node",
  "id": 3672030302,
  "lat": 41.8024700,
  "lon": 20.8071214,
  "tags": {
    "amenity": "place_of_worship",
    "denomination": "orthodox",
    "name": "Св. Мина",
    "religion": "christian"
  }
},
{
  "type": "node",
  "id": 3672030303,
  "lat": 41.8085051,
  "lon": 20.7881466,
  "tags": {
    "amenity": "place_of_worship",
    "denomination": "orthodox",
    "name": "Св. Атанасиј",
    "religion": "christian"
  }
},
{
  "type": "node",
  "id": 3687056616,
  "lat": 41.6645167,
  "lon": 20.7334014,
  "tags": {
    "amenity": "place_of_worship",
    "name": "Црква Св. Николе",
    "religion": "christian"
  }
},
{
  "type": "node",
  "id": 3694794582,
  "lat": 41.9676760,
  "lon": 22.8076575,
  "tags": {
    "addr:city": "Ѕвегор",
    "addr:postcode": "2320",
    "addr:street": "Street 2 (Лукан Маала)",
    "amenity": "place_of_worship",
    "denomination": "orthodox",
    "name": "Св. Јован Крстител",
    "name:en": "Sv. Jovan Krstitel",
    "religion": "christian"
  }
},
{
  "type": "node",
  "id": 3695321380,
  "lat": 41.9659677,
  "lon": 22.7595526,
  "tags": {
    "amenity": "place_of_worship",
    "denomination": "orthodox",
    "name": "Св. Богородица Балаклија - манастир",
    "religion": "christian"
  }
},
{
  "type": "node",
  "id": 3695758775,
  "lat": 41.9654570,
  "lon": 22.7692342,
  "tags": {
    "amenity": "place_of_worship",
    "name": "Џамија - Султан Фатих Мехмет II",
    "name:en": "Sultan Fatih Mehmet II - Mosque",
    "religion": "muslim"
  }
},
{
  "type": "node",
  "id": 3695988841,
  "lat": 41.9664768,
  "lon": 22.7729986,
  "tags": {
    "name": "Музеј на град Делчево",
    "name:en": "City Museum",
    "tourism": "museum"
  }
},
{
  "type": "node",
  "id": 3696061335,
  "lat": 41.9641339,
  "lon": 22.7747523,
  "tags": {
    "addr:city": "Делчево",
    "addr:postcode": "2320",
    "addr:street": "Кеј на Слободата",
    "amenity": "place_of_worship",
    "name": "Св. Наум",
    "name:en": "St. Naum",
    "religion": "christian"
  }
},
{
  "type": "node",
  "id": 3696061336,
  "lat": 41.9669918,
  "lon": 22.7779676,
  "tags": {
    "amenity": "place_of_worship",
    "name": "Св. Климент Охридски",
    "name:en": "St. Kliment Ohridski",
    "religion": "christian"
  }
},
{
  "type": "node",
  "id": 3696762223,
  "lat": 42.0238942,
  "lon": 22.7229364,
  "tags": {
    "amenity": "place_of_worship",
    "name": "Св. Петка",
    "name:en": "Sv. Petka (from 14th Century)",
    "religion": "christian"
  }
},
{
  "type": "node",
  "id": 3704816792,
  "lat": 41.9414253,
  "lon": 22.7930159,
  "tags": {
    "amenity": "place_of_worship",
    "name": "Св. Ѓорги",
    "name:en": "St. Georgi",
    "religion": "christian"
  }
},
{
  "type": "node",
  "id": 3705174923,
  "lat": 41.9010303,
  "lon": 22.7303965,
  "tags": {
    "amenity": "place_of_worship",
    "name": "Св. Пантелејмон",
    "name:en": "St. Pantelejmon",
    "religion": "christian"
  }
},
{
  "type": "node",
  "id": 3782607256,
  "lat": 41.4377701,
  "lon": 22.7902607,
  "tags": {
    "amenity": "place_of_worship",
    "religion": "christian"
  }
},
{
  "type": "node",
  "id": 3786106917,
  "lat": 41.6167785,
  "lon": 22.3168135,
  "tags": {
    "amenity": "place_of_worship",
    "denomination": "orthodox",
    "name": "Св.Пантелејмон",
    "religion": "christian"
  }
},
{
  "type": "node",
  "id": 4016402507,
  "lat": 41.3779361,
  "lon": 22.3927330,
  "tags": {
    "amenity": "place_of_worship",
    "disused": "yes",
    "name": "св. Петка",
    "note": "Exact location to be verified",
    "religion": "christian"
  }
},
{
  "type": "node",
  "id": 4059931649,
  "lat": 41.8126490,
  "lon": 21.6647825,
  "tags": {
    "amenity": "place_of_worship",
    "denomination": "orthodox",
    "int_name": "Manastir Sveti Ilija",
    "name": "Manastir Sveti Ilija",
    "name:de": "Kloster Sankt Elia",
    "name:en": "Monastery of Saint Ellyah",
    "religion": "christian"
  }
},
{
  "type": "node",
  "id": 4064759493,
  "lat": 42.0758863,
  "lon": 22.1831257,
  "tags": {
    "addr:city": "Кратово",
    "amenity": "place_of_worship",
    "denomination": "orthodox",
    "int_name": "Sv. Jovan Krstitel",
    "name": "Св. Јован Крстител",
    "name:en": "St. John the Baptist",
    "religion": "christian",
    "tourism": "attraction"
  }
},
{
  "type": "node",
  "id": 4136930357,
  "lat": 41.0790945,
  "lon": 20.8235095,
  "tags": {
    "amenity": "place_of_worship",
    "denomination": "orthodox",
    "name:en": "Presveta Bogorodica",
    "religion": "christian"
  }
},
{
  "type": "node",
  "id": 4247632191,
  "lat": 41.8581015,
  "lon": 20.8897368,
  "tags": {
    "amenity": "place_of_worship",
    "building": "mosque",
    "denomination": "sunni",
    "name": "џа́мија",
    "religion": "muslim"
  }
},
{
  "type": "node",
  "id": 4247632891,
  "lat": 41.8188966,
  "lon": 20.8872549,
  "tags": {
    "amenity": "place_of_worship",
    "denomination": "sunni",
    "name": "џа́мија",
    "religion": "muslim"
  }
},
{
  "type": "node",
  "id": 4247659289,
  "lat": 41.8345329,
  "lon": 20.8835803,
  "tags": {
    "addr:postcode": "1238",
    "amenity": "place_of_worship",
    "name": "Church"
  }
},
{
  "type": "node",
  "id": 4247660589,
  "lat": 41.8670645,
  "lon": 20.8920472,
  "tags": {
    "amenity": "place_of_worship",
    "building": "mosque",
    "denomination": "sunni",
    "name": "џа́мија",
    "religion": "muslim"
  }
},
{
  "type": "node",
  "id": 4332828390,
  "lat": 41.9779014,
  "lon": 21.4642214,
  "tags": {
    "addr:street": "Булевар Србија",
    "amenity": "place_of_worship",
    "denomination": "catholic",
    "name": "Крст",
    "religion": "christian"
  }
},
{
  "type": "node",
  "id": 4356214629,
  "lat": 41.1083525,
  "lon": 21.0102717,
  "tags": {
    "amenity": "place_of_worship",
    "denomination": "orthodox",
    "name": "Св.Илија",
    "name:en": "St.Ilija",
    "name:mk": "Св.Илија",
    "religion": "christian"
  }
},
{
  "type": "node",
  "id": 4375579208,
  "lat": 41.5551579,
  "lon": 20.9826690,
  "tags": {
    "amenity": "place_of_worship",
    "religion": "muslim"
  }
},
{
  "type": "node",
  "id": 4409589398,
  "lat": 41.8370625,
  "lon": 20.8837497,
  "tags": {
    "amenity": "place_of_worship",
    "building": "mosque",
    "denomination": "sunni",
    "name": "џа́мија",
    "religion": "muslim"
  }
},
{
  "type": "node",
  "id": 4418246291,
  "lat": 41.9100745,
  "lon": 20.9107938,
  "tags": {
    "amenity": "place_of_worship",
    "name": "Џамиа",
    "name:en": "Mosque",
    "name:mk": "Џамиа",
    "name:sq": "Xhamia"
  }
},
{
  "type": "node",
  "id": 4422047250,
  "lat": 41.1100998,
  "lon": 21.0214473,
  "tags": {
    "amenity": "place_of_worship",
    "denomination": "ортходоџ",
    "name": "Св. Никола",
    "religion": "christian"
  }
},
{
  "type": "node",
  "id": 4485913838,
  "lat": 41.1291432,
  "lon": 20.8400056,
  "tags": {
    "amenity": "place_of_worship",
    "int_name": "Saint Petka Monastery",
    "name": "Манастир Света Петка",
    "name:en": "Saint Petka Monastery"
  }
},
{
  "type": "node",
  "id": 4502468090,
  "lat": 41.9670617,
  "lon": 20.9340638,
  "tags": {
    "amenity": "place_of_worship",
    "name": "Dzamija",
    "name:en": "Mosque",
    "name:mk": "Dzamija",
    "name:sq": "Xhamija"
  }
},
{
  "type": "node",
  "id": 4502469593,
  "lat": 41.9446785,
  "lon": 20.9249127,
  "tags": {
    "amenity": "place_of_worship",
    "name": "Dzamija",
    "name:en": "Mosque",
    "name:mk": "Dzamija",
    "name:sq": "Xhamija",
    "religion": "muslim"
  }
},
{
  "type": "node",
  "id": 4502469594,
  "lat": 41.9486426,
  "lon": 20.9285306,
  "tags": {
    "amenity": "place_of_worship",
    "name": "Dzamija",
    "name:en": "Mosque",
    "name:mk": "Dzamija",
    "name:sq": "Xhamija"
  }
},
{
  "type": "node",
  "id": 4502488689,
  "lat": 41.9237954,
  "lon": 20.9163298,
  "tags": {
    "amenity": "place_of_worship",
    "name": "Dzamija",
    "name:en": "Mosque",
    "name:mk": "Џамија",
    "name:sq": "Xhamia"
  }
},
{
  "type": "node",
  "id": 4551996521,
  "lat": 41.7031608,
  "lon": 20.7595909,
  "tags": {
    "amenity": "place_of_worship",
    "denomination": "orthodox",
    "name": "Ss. Cyril and Methodius – Црква Св.Кирил и Методиј",
    "religion": "christian"
  }
},
{
  "type": "node",
  "id": 4674392389,
  "lat": 41.9540687,
  "lon": 21.2889878,
  "tags": {
    "amenity": "place_of_worship",
    "denomination": "macedonian_orthodox",
    "designation": "Monastery",
    "name": "Sveti Spas",
    "religion": "christian"
  }
},
{
  "type": "node",
  "id": 4793132553,
  "lat": 41.4684254,
  "lon": 22.0833364,
  "tags": {
    "amenity": "place_of_worship",
    "religion": "christian"
  }
},
{
  "type": "node",
  "id": 4817137480,
  "lat": 41.4300424,
  "lon": 22.6409328,
  "tags": {
    "amenity": "place_of_worship",
    "denomination": "orthodox",
    "description": "Таму се наоѓа копија на чудотворна икона на Пресвета Богородица „Брзопослушница“",
    "name": "Манастир Св. 15 Маченици",
    "religion": "christian"
  }
},
{
  "type": "node",
  "id": 4842170821,
  "lat": 41.1249175,
  "lon": 20.8534916,
  "tags": {
    "amenity": "place_of_worship",
    "name": "Св. Никола",
    "name:en": "Saint Nicholas Church",
    "name:fr": "Eglise Saint Nicolas"
  }
},
{
  "type": "node",
  "id": 4895300621,
  "lat": 42.0054870,
  "lon": 21.4431109,
  "tags": {
    "amenity": "place_of_worship",
    "name:tr": "RUFAİ TEKKESİ"
  }
},
{
  "type": "node",
  "id": 4913622015,
  "lat": 41.7430936,
  "lon": 20.6763098,
  "tags": {
    "denomination": "orthodox",
    "historic": "wayside_shrine",
    "religion": "christian"
  }
},
{
  "type": "node",
  "id": 5020280587,
  "lat": 41.9497210,
  "lon": 21.2914987,
  "tags": {
    "amenity": "place_of_worship",
    "denomination": "macedonian_orthodox",
    "designation": "Monastery",
    "name": "Sveta Nedela",
    "religion": "christian"
  }
},
{
  "type": "node",
  "id": 5115421420,
  "lat": 41.1172494,
  "lon": 20.7948455,
  "tags": {
    "amenity": "place_of_worship",
    "denomination": "orthodox",
    "description": "Macedonian Eastern Orthodox Church",
    "int_name": "St. Michael the Archangel",
    "name": "Св. Архангел Михаил",
    "religion": "christian"
  }
},
{
  "type": "node",
  "id": 5311578447,
  "lat": 42.1394412,
  "lon": 21.1020050,
  "tags": {
    "amenity": "place_of_worship",
    "religion": "christian"
  }
},
{
  "type": "node",
  "id": 5327301211,
  "lat": 41.9213327,
  "lon": 20.8993806,
  "tags": {
    "addr:city": "Раковец",
    "amenity": "place_of_worship",
    "religion": "muslim"
  }
},
{
  "type": "node",
  "id": 5327301348,
  "lat": 41.9252423,
  "lon": 20.9121426,
  "tags": {
    "addr:city": "Боговиње",
    "amenity": "place_of_worship",
    "religion": "muslim"
  }
},
{
  "type": "node",
  "id": 5327471601,
  "lat": 41.0067740,
  "lon": 21.3415263,
  "tags": {
    "amenity": "place_of_worship",
    "denomination": "orthodox",
    "historic": "yes",
    "name": "Св. Троица",
    "name:en": "St. Trinity",
    "name:pl": "Cerkiew św. Trójcy",
    "religion": "christian",
    "tourism": "attraction",
    "wikipedia": "mk:Св._Троица_(Битола)"
  }
},
{
  "type": "node",
  "id": 5405804948,
  "lat": 41.0881175,
  "lon": 20.8227937,
  "tags": {
    "addr:city": "Velestovo",
    "amenity": "place_of_worship",
    "denomination": "orthodox",
    "ele": "970",
    "name": "Свети Тројца Архиереи",
    "religion": "christian",
    "tourism": "attraction"
  }
},
{
  "type": "node",
  "id": 5405822023,
  "lat": 41.1161136,
  "lon": 20.8400708,
  "tags": {
    "amenity": "place_of_worship",
    "denomination": "orthodox",
    "name": "Свети Атанасиј Велики Архиепископ Александриски",
    "religion": "christian"
  }
},
{
  "type": "node",
  "id": 5469804185,
  "lat": 41.1827523,
  "lon": 20.7990502,
  "tags": {
    "addr:city": "Горно Лакочереј",
    "amenity": "place_of_worship",
    "denomination": "orthodox",
    "ele": "800",
    "name": "Црква „Свети Илија„",
    "name:en": "Church of St. Elijah",
    "religion": "christian"
  }
},
{
  "type": "node",
  "id": 5469827562,
  "lat": 41.1817025,
  "lon": 20.7932588,
  "tags": {
    "addr:city": "Село Горно Лакочереј",
    "amenity": "place_of_worship",
    "denomination": "orthodox",
    "ele": "880",
    "name": "Црква „Свети Спас“",
    "phone": "+389 77 899 580",
    "religion": "christian"
  }
},
{
  "type": "node",
  "id": 5601794412,
  "lat": 41.9389087,
  "lon": 21.6146788,
  "tags": {
    "amenity": "place_of_worship",
    "denomination": "orthodox",
    "name": "Св. Ѓорѓија",
    "religion": "christian"
  }
},
{
  "type": "node",
  "id": 5642350720,
  "lat": 41.1732572,
  "lon": 22.7294274,
  "tags": {
    "amenity": "place_of_worship",
    "denomination": "orthodox",
    "religion": "christian"
  }
},
{
  "type": "node",
  "id": 5699016423,
  "lat": 41.0240503,
  "lon": 21.0506131,
  "tags": {
    "name": "Eтнолошки музеј",
    "name:en": "Ethnographic museum",
    "tourism": "museum"
  }
},
{
  "type": "node",
  "id": 5722266446,
  "lat": 42.1003011,
  "lon": 21.9665342,
  "tags": {
    "historic": "archaeological_site",
    "historic:civilization": "ancient_roman",
    "name": "Konjuh"
  }
},
{
  "type": "node",
  "id": 5724919827,
  "lat": 42.0950967,
  "lon": 21.9657381,
  "tags": {
    "amenity": "place_of_worship"
  }
},
{
  "type": "node",
  "id": 5724937829,
  "lat": 42.0955359,
  "lon": 21.9603383,
  "tags": {
    "amenity": "place_of_worship",
    "historic:period": "medieval",
    "religion": "christian"
  }
},
{
  "type": "node",
  "id": 5725072268,
  "lat": 41.7376603,
  "lon": 22.1863555,
  "tags": {
    "historic": "archaeological_site",
    "historic:civilization": "medieval"
  }
},
{
  "type": "node",
  "id": 5725139643,
  "lat": 41.7995125,
  "lon": 22.2898290,
  "tags": {
    "historic": "archaeological_site",
    "historic:civilization": "ancient_roman",
    "name": "Bargala"
  }
},
{
  "type": "node",
  "id": 5725139652,
  "lat": 41.7973143,
  "lon": 22.2907471,
  "tags": {
    "amenity": "place_of_worship",
    "religion": "christian"
  }
},
{
  "type": "node",
  "id": 5728312945,
  "lat": 41.3825161,
  "lon": 22.7542141,
  "tags": {
    "historic": "archaeological_site",
    "name": "Roman Bathhouse",
    "tourism": "attraction"
  }
},
{
  "type": "node",
  "id": 5729742420,
  "lat": 41.7779241,
  "lon": 22.8625358,
  "tags": {
    "historic": "archaeological_site"
  }
},
{
  "type": "node",
  "id": 5729916159,
  "lat": 41.8484714,
  "lon": 22.4180157,
  "tags": {
    "historic": "archaeological_site"
  }
},
{
  "type": "node",
  "id": 5833918548,
  "lat": 41.5939237,
  "lon": 20.6527230,
  "tags": {
    "name": "Museum of Galichnik's cultural heritage",
    "tourism": "museum"
  }
},
{
  "type": "node",
  "id": 5838570330,
  "lat": 41.5198288,
  "lon": 20.5255985,
  "tags": {
    "amenity": "place_of_worship",
    "religion": "muslim"
  }
},
{
  "type": "node",
  "id": 5931017315,
  "lat": 41.5578401,
  "lon": 22.2870123,
  "tags": {
    "amenity": "place_of_worship",
    "denomination": "orthodox",
    "name": "Св. Ѓорѓи",
    "religion": "christian"
  }
},
{
  "type": "node",
  "id": 6020682284,
  "lat": 42.0854161,
  "lon": 21.4890684,
  "tags": {
    "amenity": "place_of_worship",
    "denomination": "orthodox",
    "name": "Sveti Spas",
    "religion": "christian"
  }
},
{
  "type": "node",
  "id": 6054048885,
  "lat": 42.0011364,
  "lon": 21.4367075,
  "tags": {
    "amenity": "place_of_worship"
  }
},
{
  "type": "node",
  "id": 6079524190,
  "lat": 42.0218940,
  "lon": 22.5882451,
  "tags": {
    "amenity": "place_of_worship",
    "denomination": "orthodox",
    "name": "Assumption of Mary",
    "religion": "christian",
    "service_times": "Sunday"
  }
},
{
  "type": "node",
  "id": 6274218923,
  "lat": 41.7151560,
  "lon": 21.7874159,
  "tags": {
    "amenity": "place_of_worship",
    "name": "Свети Пантелејмон",
    "religion": "christian"
  }
},
{
  "type": "node",
  "id": 6275187296,
  "lat": 42.0386390,
  "lon": 21.4470962,
  "tags": {
    "amenity": "place_of_worship",
    "denomination": "orthodox",
    "name": "Свети Јован Крстител",
    "religion": "christian"
  }
},
{
  "type": "node",
  "id": 6327921348,
  "lat": 41.3390523,
  "lon": 22.2545875,
  "tags": {
    "amenity": "place_of_worship",
    "denomination": "orthodox",
    "name": "Св. Ѓорѓија",
    "name:en": "St. George",
    "religion": "christian"
  }
},
{
  "type": "node",
  "id": 6330116899,
  "lat": 40.9167284,
  "lon": 21.5278294,
  "tags": {
    "amenity": "place_of_worship",
    "religion": "christian"
  }
},
{
  "type": "node",
  "id": 6418857588,
  "lat": 41.0043725,
  "lon": 20.9282003,
  "tags": {
    "access": "yes",
    "archaeological_site": "fortification",
    "ele": "1181",
    "historic": "archaeological_site",
    "historic:civilization": "byzantine",
    "int_name": "Kale",
    "name": "Кале",
    "name:en": "Kale",
    "name:mk": "Кале",
    "wikidata": "Q20569402",
    "wikipedia": "mk:Кале (Шурленци)"
  }
},
{
  "type": "node",
  "id": 6448580245,
  "lat": 41.6207798,
  "lon": 20.6094915,
  "tags": {
    "addr:city": "Mavrovo and Rostushe",
    "addr:postcode": "1254",
    "amenity": "monastery",
    "denomination": "orthodox",
    "email": "info@bigorski.org.mk",
    "name": "Бигорски Манастир",
    "phone": "+389 (0) 42 333 399",
    "religion": "christian",
    "start_date": "1021",
    "website": "https://bigorski.org.mk",
    "wheelchair": "yes",
    "wikidata": "Q1276520",
    "wikipedia": "en:Saint Jovan Bigorski Monastery"
  }
},
{
  "type": "node",
  "id": 6452648309,
  "lat": 41.3788494,
  "lon": 22.8142315,
  "tags": {
    "amenity": "place_of_worship",
    "religion": "christian"
  }
},
{
  "type": "node",
  "id": 6471416045,
  "lat": 41.9856377,
  "lon": 22.5905605,
  "tags": {
    "access": "yes",
    "alt_name": "Луковица",
    "alt_name:mk": "Lukovica",
    "archaeological_site": "fortification",
    "ele": "523",
    "historic": "archaeological_site",
    "historic:civilization": "ancient_roman",
    "int_name": "Kalata",
    "name": "Калата",
    "name:en": "Kalata",
    "name:mk": "Калата",
    "source": "survey",
    "source:ele": "https://ossp.katastar.gov.mk/OSSP/",
    "source:type": "http://www.promacedonia.org/im3/im_delchevo.htm",
    "start_date": "3rd century",
    "wikidata": "Q43276459",
    "wikipedia": "mk:Калата"
  }
},
{
  "type": "node",
  "id": 6496452597,
  "lat": 40.9142772,
  "lon": 20.9879202,
  "tags": {
    "alt_name": "Свети Никола",
    "amenity": "place_of_worship",
    "denomination": "orthodox",
    "int_name": "Sveti Nikola",
    "name": "Св. Никола",
    "name:en": "Saint Nicholas Church",
    "name:mk": "Св. Никола",
    "religion": "christian"
  }
},
{
  "type": "node",
  "id": 6497512448,
  "lat": 40.9389819,
  "lon": 20.9114422,
  "tags": {
    "amenity": "place_of_worship",
    "denomination": "orthodox",
    "name": "Св. Кирил и Методиј",
    "name:en": "Saint Cyril and Methodius Church",
    "name:mk": "Св. Кирил и Методиј",
    "religion": "christian"
  }
},
{
  "type": "node",
  "id": 6499470885,
  "lat": 41.5263923,
  "lon": 20.5259249,
  "tags": {
    "amenity": "place_of_worship",
    "name:en": "cami"
  }
},
{
  "type": "node",
  "id": 6501627685,
  "lat": 41.6120845,
  "lon": 20.6001722,
  "tags": {
    "amenity": "place_of_worship"
  }
},
{
  "type": "node",
  "id": 6535106716,
  "lat": 41.6952366,
  "lon": 21.6281720,
  "tags": {
    "access": "yes",
    "archaeological_site": "fortification",
    "ele": "840",
    "historic": "archaeological_site",
    "int_name": "Banjichko Kale",
    "name": "Бањичко Кале",
    "name:en": "Banjica Fortress",
    "wikidata": "Q61121392",
    "wikipedia": "mk:Бањичко Кале"
  }
},
{
  "type": "node",
  "id": 6610723418,
  "lat": 41.7584182,
  "lon": 22.2049297,
  "tags": {
    "addr:city": "Штип",
    "addr:postcode": "2000",
    "addr:street": "Крушевска Република",
    "amenity": "monastery",
    "name": "Св. Кирил и Методиј,",
    "religion": "christian"
  }
},
{
  "type": "node",
  "id": 6610723419,
  "lat": 41.7649590,
  "lon": 22.1992659,
  "tags": {
    "addr:city": "Штип",
    "addr:postcode": "2000",
    "addr:street": "Партизанска",
    "amenity": "monastery",
    "name": "Св. Троица",
    "religion": "christian"
  }
},
{
  "type": "node",
  "id": 6631161986,
  "lat": 41.2395882,
  "lon": 20.5896518,
  "tags": {
    "amenity": "place_of_worship",
    "name:en": "St Nicholas Church",
    "name:fr": "Église St Nicolas"
  }
},
{
  "type": "node",
  "id": 6649560685,
  "lat": 40.9488827,
  "lon": 20.7743745,
  "tags": {
    "amenity": "place_of_worship",
    "denomination": "orthodox",
    "name": "Св. Богородица Захумска",
    "religion": "christian"
  }
},
{
  "type": "node",
  "id": 6690599185,
  "lat": 42.2903563,
  "lon": 22.0423694,
  "tags": {
    "amenity": "place_of_worship",
    "denomination": "orthodox",
    "name": "Црква св. Jован",
    "religion": "christian"
  }
},
{
  "type": "node",
  "id": 6700534285,
  "lat": 41.7428453,
  "lon": 20.6743171,
  "tags": {
    "amenity": "place_of_worship",
    "denomination": "orthodox",
    "religion": "christian"
  }
},
{
  "type": "node",
  "id": 6700534286,
  "lat": 41.7442101,
  "lon": 20.6741391,
  "tags": {
    "amenity": "place_of_worship",
    "religion": "muslim"
  }
},
{
  "type": "node",
  "id": 6775798435,
  "lat": 41.5363785,
  "lon": 20.6936768,
  "tags": {
    "amenity": "place_of_worship",
    "denomination": "orthodox",
    "name": "Св. Ѓорѓи",
    "opening_hours": "sunday",
    "religion": "christian",
    "wikidata": "Q12293134",
    "wikipedia": "mk:Црква „Св. Ѓорѓи“ - Лазарополе"
  }
},
{
  "type": "node",
  "id": 6814236608,
  "lat": 42.0049027,
  "lon": 21.4368729,
  "tags": {
    "amenity": "place_of_worship",
    "name": "Haci Balaban 1440"
  }
},
{
  "type": "node",
  "id": 6814236614,
  "lat": 42.0038278,
  "lon": 21.4375316,
  "tags": {
    "amenity": "place_of_worship",
    "name": "Mosque"
  }
},
{
  "type": "node",
  "id": 6830542190,
  "lat": 41.6345497,
  "lon": 20.9142852,
  "tags": {
    "amenity": "place_of_worship",
    "name": "Mosque",
    "religion": "muslim"
  }
},
{
  "type": "node",
  "id": 6830542192,
  "lat": 41.5691074,
  "lon": 20.9568036,
  "tags": {
    "amenity": "place_of_worship",
    "name": "Mosque"
  }
},
{
  "type": "node",
  "id": 6830542387,
  "lat": 42.0013585,
  "lon": 21.4167475,
  "tags": {
    "amenity": "place_of_worship",
    "name": "Christijanski Zentar",
    "name:en": "Church",
    "religion": "christian"
  }
},
{
  "type": "node",
  "id": 6830542388,
  "lat": 41.9762590,
  "lon": 20.9558771,
  "tags": {
    "amenity": "place_of_worship",
    "name:en": "Mosque"
  }
},
{
  "type": "node",
  "id": 6830542487,
  "lat": 41.3236049,
  "lon": 20.7929425,
  "tags": {
    "amenity": "place_of_worship",
    "name": "Church"
  }
},
{
  "type": "node",
  "id": 6875520386,
  "lat": 41.4373198,
  "lon": 22.6353267,
  "tags": {
    "addr:housenumber": "4",
    "addr:postcode": "2400",
    "addr:street": "Загребска",
    "amenity": "place_of_worship",
    "name": "Евангелско Методистичка Црква",
    "name:en": "United Methodist Church",
    "website": "http://emc.mk/%D0%B7%D0%B0-%D0%BD%D0%B0%D1%81/"
  }
},
{
  "type": "node",
  "id": 6928597500,
  "lat": 42.0992419,
  "lon": 21.9628186,
  "tags": {
    "historic": "archaeological_site"
  }
},
{
  "type": "node",
  "id": 6950924979,
  "lat": 41.4470959,
  "lon": 20.5222545,
  "tags": {
    "amenity": "place_of_worship",
    "religion": "muslim"
  }
},
{
  "type": "node",
  "id": 6987611917,
  "lat": 41.9962134,
  "lon": 21.4291373,
  "tags": {
    "addr:housenumber": "10",
    "addr:street": "Максим Горки",
    "name:en": "Museum of illusions",
    "name:ru": "Музей иллюзий",
    "tourism": "museum"
  }
},
{
  "type": "node",
  "id": 7102244287,
  "lat": 41.9989569,
  "lon": 21.3865879,
  "tags": {
    "addr:housenumber": "94",
    "addr:postcode": "1000",
    "addr:street": "Војвода Васил Чакаларов",
    "email": "galerija.ra@gmail.com",
    "internet_access": "wlan",
    "name": "Galerija RA",
    "name:en": "Gallery RA",
    "name:hr": "Macedonian",
    "opening_hours": "Mo-Sa 10:00-20:00",
    "phone": "+389075435402",
    "tourism": "museum"
  }
},
{
  "type": "node",
  "id": 7121648908,
  "lat": 41.1888901,
  "lon": 22.7192011,
  "tags": {
    "addr:city": "Стар Дојран",
    "addr:postcode": "1487",
    "addr:street": "Маршал Тито",
    "amenity": "place_of_worship",
    "denomination": "orthodox",
    "name": "Свети Илија",
    "religion": "christian"
  }
},
{
  "type": "node",
  "id": 7373522743,
  "lat": 41.7503884,
  "lon": 22.2211631,
  "tags": {
    "amenity": "monastery",
    "name": "Света Недела",
    "religion": "christian"
  }
},
{
  "type": "node",
  "id": 7416200113,
  "lat": 41.6444402,
  "lon": 22.4565993,
  "tags": {
    "amenity": "place_of_worship",
    "denomination": "orthodox",
    "name": "Православна црква \"Свети Илија\"",
    "religion": "christian"
  }
},
{
  "type": "node",
  "id": 7416200115,
  "lat": 41.6431439,
  "lon": 22.4689196,
  "tags": {
    "amenity": "place_of_worship",
    "religion": "muslim"
  }
},
{
  "type": "node",
  "id": 7416200116,
  "lat": 41.6439354,
  "lon": 22.4635719,
  "tags": {
    "amenity": "place_of_worship",
    "religion": "muslim"
  }
},
{
  "type": "node",
  "id": 7570209739,
  "lat": 41.1068913,
  "lon": 20.6324791,
  "tags": {
    "denomination": "orthodox",
    "name": "Св. Архангел Михаил",
    "natural": "cave_entrance",
    "place_of_worship": "church",
    "religion": "christian"
  }
},
{
  "type": "node",
  "id": 7771043050,
  "lat": 41.4440296,
  "lon": 20.8736344,
  "tags": {
    "amenity": "place_of_worship",
    "religion": "christian"
  }
},
{
  "type": "node",
  "id": 7839189326,
  "lat": 41.2040210,
  "lon": 22.5764136,
  "tags": {
    "amenity": "place_of_worship",
    "religion": "christian"
  }
},
{
  "type": "node",
  "id": 7839189335,
  "lat": 41.2014181,
  "lon": 22.5777874,
  "tags": {
    "amenity": "place_of_worship",
    "religion": "christian"
  }
},
{
  "type": "node",
  "id": 7855555417,
  "lat": 41.9029349,
  "lon": 21.8493009,
  "tags": {
    "amenity": "place_of_worship",
    "religion": "christian"
  }
},
{
  "type": "node",
  "id": 7950390467,
  "lat": 41.2101316,
  "lon": 20.5873191,
  "tags": {
    "amenity": "place_of_worship",
    "building": "yes",
    "denomination": "orthodox",
    "name": "Св. Спас",
    "name:en": "Holy Salvation",
    "natural": "cave",
    "religion": "christian"
  }
},
{
  "type": "node",
  "id": 8842731717,
  "lat": 41.9005865,
  "lon": 21.6105665,
  "tags": {
    "amenity": "place_of_worship",
    "name:en": "Orthodox church"
  }
},
{
  "type": "node",
  "id": 8850712742,
  "lat": 41.0264228,
  "lon": 21.2413843,
  "tags": {
    "amenity": "place_of_worship",
    "denomination": "orthodox",
    "name": "Свети Атанас",
    "name:en": "Saint Athanasius",
    "religion": "christian"
  }
},
{
  "type": "node",
  "id": 8850780299,
  "lat": 41.0207827,
  "lon": 21.2865681,
  "tags": {
    "amenity": "place_of_worship",
    "denomination": "orthodox",
    "name": "Свети Спас",
    "name:en": "Sveti Spas",
    "religion": "christian"
  }
},
{
  "type": "node",
  "id": 8850780300,
  "lat": 41.0224151,
  "lon": 21.2840092,
  "tags": {
    "amenity": "place_of_worship",
    "denomination": "orthodox",
    "name": "Свети Димитриј",
    "name:en": "Saint Dimitrij",
    "religion": "christian"
  }
},
{
  "type": "node",
  "id": 8850804720,
  "lat": 41.0274848,
  "lon": 21.1120413,
  "tags": {
    "amenity": "place_of_worship",
    "denomination": "orthodox",
    "name": "Света Ана",
    "name:en": "Saint Ana",
    "religion": "christian"
  }
},
{
  "type": "node",
  "id": 8913095085,
  "lat": 41.0171332,
  "lon": 21.2839588,
  "tags": {
    "amenity": "place_of_worship",
    "denomination": "orthodox",
    "name": "Св. Петка",
    "name:en": "St. Paraskeva",
    "name:mk": "Св. Петка",
    "religion": "christian"
  }
},
{
  "type": "node",
  "id": 8914478119,
  "lat": 41.3184030,
  "lon": 22.5614707,
  "tags": {
    "amenity": "place_of_worship"
  }
},
{
  "type": "node",
  "id": 8916677021,
  "lat": 41.0102076,
  "lon": 21.2501680,
  "tags": {
    "amenity": "place_of_worship",
    "denomination": "orthodox",
    "name": "Св. Петка",
    "name:en": "St. Paraskeva",
    "name:mk": "Св. Петка",
    "religion": "christian"
  }
},
{
  "type": "node",
  "id": 8944545329,
  "lat": 41.0108476,
  "lon": 21.3208996,
  "tags": {
    "denomination": "orthodox",
    "historic": "wayside_shrine",
    "name": "Св. Георгиј",
    "name:en": "St. George",
    "name:mk": "Св. Георгиј",
    "religion": "christian"
  }
},
{
  "type": "node",
  "id": 8951302848,
  "lat": 41.1110018,
  "lon": 20.7889594,
  "tags": {
    "amenity": "place_of_worship",
    "name": "Црква Рождество на Пресвета Богородица и Света Петка",
    "religion": "christian",
    "start_date": "1998",
    "wikimedia_commons": "File:Sv. Bogorodica pod Kaneo.JPG"
  }
},
{
  "type": "node",
  "id": 9080852687,
  "lat": 42.0664938,
  "lon": 21.0276019,
  "tags": {
    "amenity": "place_of_worship",
    "name": "Св. Кирил и Методиј",
    "name:en": "St. Cyril and St. Methodius",
    "religion": "christian"
  }
},
{
  "type": "node",
  "id": 9120699958,
  "lat": 41.5618318,
  "lon": 21.1908022,
  "tags": {
    "amenity": "place_of_worship",
    "name": "Црква Св. Петка",
    "religion": "christian"
  }
},
{
  "type": "node",
  "id": 9161033018,
  "lat": 40.9643836,
  "lon": 20.7886738,
  "tags": {
    "amenity": "place_of_worship",
    "name:de": "Froedhof"
  }
},
{
  "type": "node",
  "id": 9200215923,
  "lat": 41.1873221,
  "lon": 20.7499842,
  "tags": {
    "amenity": "place_of_worship",
    "name:de": "Friedhof"
  }
},
{
  "type": "node",
  "id": 9200215930,
  "lat": 40.9189088,
  "lon": 20.7712682,
  "tags": {
    "amenity": "place_of_worship",
    "name:de": "Kirche und Friedhof"
  }
},
{
  "type": "node",
  "id": 9200216075,
  "lat": 41.9834113,
  "lon": 21.3086638,
  "tags": {
    "amenity": "place_of_worship",
    "name:de": "Friedhof"
  }
},
{
  "type": "node",
  "id": 9219801017,
  "lat": 41.1133728,
  "lon": 20.7973177,
  "tags": {
    "addr:street": "Климентов Универзитет",
    "amenity": "place_of_worship",
    "name": "Света Борогодица Челница",
    "name:en": "Holy Mother of God Chelnichka",
    "religion": "christian"
  }
},
{
  "type": "node",
  "id": 9241877277,
  "lat": 41.4354106,
  "lon": 22.6364291,
  "tags": {
    "name": "Museum Strumica",
    "tourism": "museum"
  }
},
{
  "type": "node",
  "id": 9241913498,
  "lat": 42.2089207,
  "lon": 22.3621503,
  "tags": {
    "amenity": "place_of_worship",
    "name": "Saint Joachim Osogovski",
    "name:mk": "Свети Јоаким Осоговски",
    "religion": "christian",
    "tourism": "attraction"
  }
},
{
  "type": "node",
  "id": 9241915460,
  "lat": 41.1488082,
  "lon": 22.5220207,
  "tags": {
    "name": "Vardarski Rid",
    "tourism": "museum"
  }
},
{
  "type": "node",
  "id": 9633312940,
  "lat": 41.3643261,
  "lon": 21.6070578,
  "tags": {
    "access": "yes",
    "denomination": "macedonian_orthodox",
    "historic": "wayside_shrine",
    "name": "Св. Петка",
    "name:en": "St. Parascheva",
    "religion": "christian"
  }
},
{
  "type": "node",
  "id": 9689907651,
  "lat": 41.2658411,
  "lon": 21.4705534,
  "tags": {
    "denomination": "macedonian_orthodox",
    "historic": "wayside_shrine",
    "religion": "christian"
  }
},
{
  "type": "node",
  "id": 9789628417,
  "lat": 41.9187645,
  "lon": 22.0642612,
  "tags": {
    "amenity": "place_of_worship",
    "name:en": "Church",
    "name:fr": "Eglise"
  }
},
{
  "type": "node",
  "id": 9815296517,
  "lat": 41.4433744,
  "lon": 20.5319239,
  "tags": {
    "amenity": "place_of_worship",
    "name:fr": "mosquée"
  }
},
{
  "type": "node",
  "id": 9870278517,
  "lat": 41.1849403,
  "lon": 20.8769171,
  "tags": {
    "amenity": "place_of_worship",
    "name:en": "St. Kozmo and Damjan"
  }
},
{
  "type": "node",
  "id": 9874636372,
  "lat": 41.2081445,
  "lon": 20.9655147,
  "tags": {
    "amenity": "place_of_worship",
    "internet_access": "no",
    "religion": "christian",
    "wheelchair": "no"
  }
},
{
  "type": "node",
  "id": 9874974045,
  "lat": 41.3682851,
  "lon": 21.6484545,
  "tags": {
    "denomination": "macedonian_orthodox",
    "historic": "wayside_shrine",
    "religion": "christian"
  }
},
{
  "type": "node",
  "id": 9874974048,
  "lat": 41.3667601,
  "lon": 21.6537245,
  "tags": {
    "denomination": "macedonian_orthodox",
    "historic": "wayside_shrine",
    "religion": "christian"
  }
},
{
  "type": "node",
  "id": 9897124627,
  "lat": 41.1135425,
  "lon": 20.7967334,
  "tags": {
    "amenity": "place_of_worship",
    "name": "Мали Свети Врачи - Св. Кузман и Дамјан",
    "religion": "christian"
  }
},
{
  "type": "node",
  "id": 9903663737,
  "lat": 41.1334664,
  "lon": 20.8473582,
  "tags": {
    "amenity": "place_of_worship",
    "name": "Manastir Svetog Ilije",
    "religion": "christian"
  }
},
{
  "type": "node",
  "id": 9907558752,
  "lat": 40.9452955,
  "lon": 20.9015885,
  "tags": {
    "amenity": "place_of_worship",
    "denomination": "orthodox",
    "religion": "christian"
  }
},
{
  "type": "node",
  "id": 9907558791,
  "lat": 41.0650349,
  "lon": 21.1451250,
  "tags": {
    "amenity": "place_of_worship",
    "denomination": "orthodox",
    "religion": "christian"
  }
},
{
  "type": "node",
  "id": 9907558792,
  "lat": 41.0659134,
  "lon": 21.2084274,
  "tags": {
    "amenity": "place_of_worship",
    "building": "chapel",
    "denomination": "orthodox",
    "religion": "christian"
  }
},
{
  "type": "node",
  "id": 9945894317,
  "lat": 41.1123275,
  "lon": 20.7970433,
  "tags": {
    "name": "House of Lambeski",
    "tourism": "museum"
  }
},
{
  "type": "node",
  "id": 10016706957,
  "lat": 41.2332968,
  "lon": 20.6053271,
  "tags": {
    "amenity": "place_of_worship",
    "religion": "muslim"
  }
},
{
  "type": "node",
  "id": 10049878740,
  "lat": 42.2235516,
  "lon": 21.7003670,
  "tags": {
    "addr:city": "Табановце",
    "amenity": "place_of_worship",
    "name": "Muslim mosque",
    "religion": "muslim"
  }
},
{
  "type": "node",
  "id": 10077532395,
  "lat": 41.5204992,
  "lon": 20.9513010,
  "tags": {
    "addr:city": "Kicevo",
    "addr:postcode": "6250",
    "addr:street": "Ужичка Република",
    "amenity": "place_of_worship",
    "name": "4 Halifët",
    "religion": "muslim"
  }
},
{
  "type": "node",
  "id": 10077532396,
  "lat": 41.5186764,
  "lon": 20.9627469,
  "tags": {
    "amenity": "place_of_worship",
    "name": "Bela Kula",
    "religion": "muslim"
  }
},
{
  "type": "node",
  "id": 10077534873,
  "lat": 41.5142629,
  "lon": 20.9600539,
  "tags": {
    "amenity": "place_of_worship",
    "denomination": "shia",
    "name": "Teqja  \"ADËR BABA\"",
    "religion": "muslim"
  }
},
{
  "type": "node",
  "id": 10077537272,
  "lat": 41.5160132,
  "lon": 20.9641748,
  "tags": {
    "amenity": "place_of_worship",
    "name": "Muftinia e Kërçovës",
    "religion": "muslim"
  }
},
{
  "type": "node",
  "id": 10106511447,
  "lat": 41.4290667,
  "lon": 22.6409802,
  "tags": {
    "amenity": "place_of_worship",
    "religion": "muslim"
  }
},
{
  "type": "node",
  "id": 10172834294,
  "lat": 41.8793162,
  "lon": 22.5061828,
  "tags": {
    "amenity": "place_of_worship",
    "religion": "muslim"
  }
},
{
  "type": "node",
  "id": 10174642572,
  "lat": 41.8846784,
  "lon": 22.5128835,
  "tags": {
    "amenity": "place_of_worship",
    "denomination": "orthodox",
    "name": "Свети Апостол и евангелист Лука",
    "religion": "christian"
  }
},
{
  "type": "node",
  "id": 10188836793,
  "lat": 41.6936732,
  "lon": 20.7236770,
  "tags": {
    "amenity": "place_of_worship",
    "denomination": "orthodox",
    "name": "Црква Св. Никол",
    "name:pl": "Cerkiew św. Mik",
    "religion": "christian"
  }
},
{
  "type": "node",
  "id": 10203806066,
  "lat": 41.1225742,
  "lon": 20.7846630,
  "tags": {
    "amenity": "place_of_worship",
    "building": "mosque",
    "religion": "muslim"
  }
},
{
  "type": "node",
  "id": 10203858685,
  "lat": 41.1757351,
  "lon": 20.6757298,
  "tags": {
    "amenity": "place_of_worship",
    "denomination": "evangelical",
    "name": "Евангелска црква Струга",
    "religion": "christian"
  }
},
{
  "type": "node",
  "id": 10683728205,
  "lat": 42.1415493,
  "lon": 21.6950580,
  "tags": {
    "amenity": "place_of_worship",
    "name:en": "Sveta Petka"
  }
},
{
  "type": "node",
  "id": 10834112603,
  "lat": 41.4708932,
  "lon": 20.8897693,
  "tags": {
    "amenity": "place_of_worship",
    "denomination": "orthodox",
    "int_name": "St. Athanasius the Great",
    "name": "Св. Атанасиј Велики",
    "name:mk": "Св. Атанасиј Велики",
    "religion": "christian"
  }
},
{
  "type": "node",
  "id": 10903157207,
  "lat": 41.5880829,
  "lon": 20.6272412,
  "tags": {
    "amenity": "place_of_worship",
    "religion": "muslim",
    "survey:date": "2023-05-16"
  }
},
{
  "type": "node",
  "id": 10906089678,
  "lat": 41.5300004,
  "lon": 20.5276097,
  "tags": {
    "amenity": "place_of_worship",
    "denomination": "orthodox",
    "name": "Успение на Пресвета Богородица",
    "religion": "christian"
  }
},
{
  "type": "node",
  "id": 10908106509,
  "lat": 41.1091020,
  "lon": 20.6341416,
  "tags": {
    "amenity": "place_of_worship",
    "religion": "christian",
    "survey:date": "2023-05-18"
  }
},
{
  "type": "node",
  "id": 10926875205,
  "lat": 41.0259399,
  "lon": 21.3144015,
  "tags": {
    "amenity": "place_of_worship",
    "name:en": "Црква Св.Лидија"
  }
},
{
  "type": "node",
  "id": 10932198705,
  "lat": 41.0748026,
  "lon": 21.3299172,
  "tags": {
    "name:en": "Auto and etno museum \"Filip\"",
    "tourism": "museum",
    "website": "http://www.muzejkrklino.mk/en/"
  }
},
{
  "type": "node",
  "id": 10951320762,
  "lat": 41.8848347,
  "lon": 21.2783290,
  "tags": {
    "amenity": "place_of_worship",
    "denomination": "orthodox",
    "image": "https://encrypted-tbn0.gstatic.com/images?q=tbn:ANd9GcTi5omrKp55t3b8E12vFxPMtDd8f_zaBCGarv4LT6rrchrbfQEundxs6KdeyIfKnj1V3tE&usqp=CAU",
    "name": "Sveti Nikola",
    "religion": "christian"
  }
},
{
  "type": "node",
  "id": 10951339225,
  "lat": 41.8885353,
  "lon": 21.2811862,
  "tags": {
    "amenity": "school",
    "denomination": "orthodox",
    "grades": "1-4",
    "religion": "christian"
  }
},
{
  "type": "node",
  "id": 10951472385,
  "lat": 41.8825844,
  "lon": 21.1272696,
  "tags": {
    "addr:city": "Седларево",
    "addr:postcode": "1000",
    "amenity": "place_of_worship",
    "name": "Sedlarevo Mosque",
    "religion": "muslim"
  }
},
{
  "type": "node",
  "id": 10951493047,
  "lat": 41.8435051,
  "lon": 21.1052173,
  "tags": {
    "amenity": "place_of_worship",
    "name": "Gurgurnica Mosque",
    "religion": "muslim"
  }
},
{
  "type": "node",
  "id": 10979418774,
  "lat": 41.1111362,
  "lon": 20.7886924,
  "tags": {
    "amenity": "place_of_worship",
    "denomination": "orthodox",
    "name": "St. John Kaneo",
    "religion": "christian"
  }
},
{
  "type": "node",
  "id": 10994717547,
  "lat": 41.1155093,
  "lon": 20.8005313,
  "tags": {
    "amenity": "place_of_worship",
    "name": "Ali Pasha Mosque",
    "religion": "muslim"
  }
},
{
  "type": "node",
  "id": 11038699139,
  "lat": 42.1493837,
  "lon": 21.1306996,
  "tags": {
    "amenity": "place_of_worship",
    "name": "Sveti Spiridon"
  }
},
{
  "type": "node",
  "id": 11107939919,
  "lat": 41.8117124,
  "lon": 21.1617392,
  "tags": {
    "archaeological_site": "settlement",
    "historic": "archaeological_site",
    "historic:civilization": "prehistoric",
    "name": "Голема Пеш",
    "name:en": "Golema Pesht",
    "wikidata": "Q20565511",
    "wikipedia": "mk:Голема Пеш"
  }
},
{
  "type": "node",
  "id": 11112639804,
  "lat": 41.4666667,
  "lon": 21.1244347,
  "tags": {
    "amenity": "place_of_worship",
    "name": "Nur",
    "religion": "muslim"
  }
},
{
  "type": "node",
  "id": 11112647105,
  "lat": 41.4811087,
  "lon": 21.1181315,
  "tags": {
    "amenity": "place_of_worship",
    "religion": "muslim"
  }
},
{
  "type": "node",
  "id": 11112647126,
  "lat": 41.4649040,
  "lon": 21.1196024,
  "tags": {
    "amenity": "place_of_worship",
    "religion": "muslim"
  }
},
{
  "type": "node",
  "id": 11112647127,
  "lat": 41.4790694,
  "lon": 21.0931450,
  "tags": {
    "amenity": "place_of_worship",
    "religion": "muslim"
  }
},
{
  "type": "node",
  "id": 11158647774,
  "lat": 41.5357682,
  "lon": 21.0088812,
  "tags": {
    "amenity": "place_of_worship",
    "religion": "muslim"
  }
},
{
  "type": "node",
  "id": 11158647775,
  "lat": 41.5433656,
  "lon": 21.0066561,
  "tags": {
    "amenity": "place_of_worship",
    "religion": "muslim"
  }
},
{
  "type": "node",
  "id": 11158647785,
  "lat": 41.5303721,
  "lon": 20.9860814,
  "tags": {
    "amenity": "place_of_worship",
    "religion": "muslim"
  }
},
{
  "type": "node",
  "id": 11158732837,
  "lat": 41.6184737,
  "lon": 21.0445696,
  "tags": {
    "amenity": "place_of_worship",
    "religion": "muslim"
  }
},
{
  "type": "node",
  "id": 11158732838,
  "lat": 41.6484097,
  "lon": 21.0262708,
  "tags": {
    "amenity": "place_of_worship",
    "religion": "muslim"
  }
},
{
  "type": "node",
  "id": 11158732839,
  "lat": 41.6551677,
  "lon": 21.0210097,
  "tags": {
    "amenity": "place_of_worship",
    "religion": "muslim"
  }
},
{
  "type": "node",
  "id": 11158732841,
  "lat": 41.5876093,
  "lon": 21.0090372,
  "tags": {
    "amenity": "place_of_worship",
    "religion": "muslim"
  }
},
{
  "type": "node",
  "id": 11158732842,
  "lat": 41.6150365,
  "lon": 21.0076289,
  "tags": {
    "amenity": "place_of_worship",
    "religion": "muslim"
  }
},
{
  "type": "node",
  "id": 11158732843,
  "lat": 41.6139137,
  "lon": 21.0072464,
  "tags": {
    "amenity": "place_of_worship",
    "religion": "muslim"
  }
},
{
  "type": "node",
  "id": 11158732844,
  "lat": 41.6145404,
  "lon": 21.0095974,
  "tags": {
    "amenity": "place_of_worship",
    "religion": "christian"
  }
},
{
  "type": "node",
  "id": 11158761745,
  "lat": 41.5761344,
  "lon": 20.9274062,
  "tags": {
    "amenity": "place_of_worship",
    "name": "Xhamia Alikurtaj",
    "religion": "muslim"
  }
},
{
  "type": "node",
  "id": 11158761746,
  "lat": 41.5735519,
  "lon": 20.9356474,
  "tags": {
    "amenity": "place_of_worship",
    "religion": "muslim"
  }
},
{
  "type": "node",
  "id": 11158761768,
  "lat": 41.6060911,
  "lon": 20.9056919,
  "tags": {
    "amenity": "place_of_worship",
    "religion": "muslim"
  }
},
{
  "type": "node",
  "id": 11159838531,
  "lat": 41.4616499,
  "lon": 21.0528847,
  "tags": {
    "amenity": "place_of_worship",
    "religion": "muslim"
  }
},
{
  "type": "node",
  "id": 11159838532,
  "lat": 41.4691041,
  "lon": 21.1102162,
  "tags": {
    "amenity": "place_of_worship",
    "religion": "muslim"
  }
},
{
  "type": "node",
  "id": 11159838533,
  "lat": 41.5860051,
  "lon": 21.0517830,
  "tags": {
    "amenity": "place_of_worship",
    "religion": "muslim"
  }
},
{
  "type": "node",
  "id": 11168301637,
  "lat": 41.5946001,
  "lon": 20.9400685,
  "tags": {
    "amenity": "place_of_worship",
    "religion": "muslim"
  }
},
{
  "type": "node",
  "id": 11168301650,
  "lat": 41.6077435,
  "lon": 20.9383797,
  "tags": {
    "amenity": "place_of_worship",
    "religion": "muslim"
  }
},
{
  "type": "node",
  "id": 11168301683,
  "lat": 41.6174162,
  "lon": 20.9397643,
  "tags": {
    "amenity": "place_of_worship",
    "religion": "muslim"
  }
},
{
  "type": "node",
  "id": 11169756569,
  "lat": 41.6260738,
  "lon": 21.0072150,
  "tags": {
    "amenity": "place_of_worship",
    "religion": "muslim"
  }
},
{
  "type": "node",
  "id": 11170724153,
  "lat": 41.5940092,
  "lon": 21.0234693,
  "tags": {
    "amenity": "place_of_worship",
    "religion": "muslim"
  }
},
{
  "type": "node",
  "id": 11171381533,
  "lat": 41.5127983,
  "lon": 20.9638123,
  "tags": {
    "tourism": "museum"
  }
},
{
  "type": "node",
  "id": 11174477927,
  "lat": 41.5951996,
  "lon": 20.9680707,
  "tags": {
    "amenity": "place_of_worship",
    "religion": "muslim"
  }
},
{
  "type": "node",
  "id": 11174527434,
  "lat": 41.5587261,
  "lon": 20.9632332,
  "tags": {
    "amenity": "place_of_worship",
    "religion": "muslim"
  }
},
{
  "type": "node",
  "id": 11174641460,
  "lat": 41.5722986,
  "lon": 20.9625067,
  "tags": {
    "amenity": "place_of_worship",
    "religion": "muslim"
  }
},
{
  "type": "node",
  "id": 11177495437,
  "lat": 42.0125107,
  "lon": 22.5987112,
  "tags": {
    "amenity": "place_of_worship",
    "name": "Св. Спас",
    "religion": "christian"
  }
},
{
  "type": "node",
  "id": 11199658508,
  "lat": 41.6062889,
  "lon": 20.9660511,
  "tags": {
    "amenity": "place_of_worship",
    "religion": "muslim"
  }
},
{
  "type": "node",
  "id": 11278490101,
  "lat": 40.9271050,
  "lon": 21.4293861,
  "tags": {
    "amenity": "place_of_worship",
    "religion": "muslim"
  }
},
{
  "type": "node",
  "id": 11335541069,
  "lat": 41.3070686,
  "lon": 21.1873038,
  "tags": {
    "amenity": "place_of_worship",
    "name": "Св. Архангел Михаил",
    "name:en": "St. Archangel Mihail"
  }
},
{
  "type": "way",
  "id": 32463336,
  "nodes": [
    364977606,
    364977608,
    2593794285,
    364977610,
    3816845190,
    364977612,
    364977613,
    3816845192,
    3816845187,
    3816845199,
    364977614,
    3122650550,
    3122650552,
    3122650553,
    3122650551,
    364977616,
    3816845205,
    364977618,
    364977620,
    364977622,
    2593794162,
    2593794179,
    3902228808,
    1870339086,
    364977623,
    373759453,
    3816845188,
    3816845201,
    3816845206,
    364977629,
    3816845204,
    3816845189,
    3816845186,
    364977631,
    364977606
  ],
  "tags": {
    "historic": "archaeological_site",
    "historic:civilization": "ancient_roman",
    "historic:period": "principate",
    "int_name": "Skupi",
    "name": "Скупи",
    "name:en": "Scupi",
    "tourism": "attraction",
    "wikidata": "Q149203",
    "wikimedia_commons": "Category:Scupi",
    "wikipedia": "mk:Скупи"
  }
},
{
  "type": "way",
  "id": 32812963,
  "nodes": [
    4346059294,
    6387796922,
    6387796921,
    369746135,
    369746136,
    369746137,
    369746138,
    369746139,
    369746140,
    369746141,
    369746142,
    369746143,
    369746144,
    369746145,
    369746146,
    369746147,
    369746148,
    369746149,
    369746150,
    369746151,
    369746152,
    369746153,
    369746154,
    369746155,
    369746156,
    369746157,
    369746158,
    369746159,
    369746160,
    369746161,
    369746162,
    369746163,
    369746164,
    369746165,
    369746166,
    369746167,
    6387796924,
    6387796923,
    369746168,
    4346059294
  ],
  "tags": {
    "addr:city": "Cкoпje",
    "addr:city:en": "Skopje",
    "addr:country": "MK",
    "addr:postcode": "1000",
    "addr:street": "Прохор Пчински",
    "addr:street:en": "Prohor Pcinski",
    "building": "public",
    "fee": "yes",
    "int_name": "Muzej na Makedonija",
    "name": "Музеј на Македонија",
    "name:bg": "Музей на Македония",
    "name:en": "Museum of Macedonia",
    "name:es": "Museo de Macedonia",
    "name:fr": "Musée de Macédoine",
    "name:pl": "Muzeum Macedońskie",
    "name:tr": "Makedonya müzesi",
    "payment:notes": "yes",
    "tourism": "museum",
    "wikidata": "Q3133557",
    "wikimedia_commons": "Category:Museum of Macedonia, Skopje",
    "wikipedia": "mk:Музеј на Македонија"
  }
},
{
  "type": "way",
  "id": 32855069,
  "nodes": [
    370104350,
    370104351,
    5339314493,
    370104352,
    5339314494,
    5339314495,
    5339314496,
    370104353,
    370104350
  ],
  "tags": {
    "addr:city": "Cкoпje",
    "addr:city:en": "Skopje",
    "addr:country": "MK",
    "addr:postcode": "1000",
    "amenity": "place_of_worship",
    "building": "church",
    "denomination": "orthodox",
    "name": "Црква Св. Димитриј",
    "name:en": "Church of St. Demetrius",
    "religion": "christian",
    "wikipedia": "mk:Црква „Св. Димитриј“ - Скопје"
  }
},
{
  "type": "way",
  "id": 32887087,
  "nodes": [
    370404760,
    370404762,
    370404766,
    370404768,
    1830951668,
    1830951677,
    370404771,
    370404773,
    370404774,
    370404775,
    370404778,
    370404781,
    370404760
  ],
  "tags": {
    "addr:city": "Cкoпje",
    "addr:city:en": "Skopje",
    "addr:country": "MK",
    "addr:postcode": "1000",
    "addr:street": "Самоилова",
    "addr:street:en": "Samoilova",
    "amenity": "arts_centre",
    "building": "yes",
    "charge": "50 MKD",
    "email": "msu-info@msuskopje.org.mk",
    "fax": "+389 2 3110123",
    "fee": "yes",
    "name": "Музеј на современата уметност",
    "name:en": "Contemporary Art Museum of Macedonia",
    "name:pl": "Muzeum Sztuki Współczesnej",
    "name:zh": "当代艺术博物馆",
    "opening_hours": "Tu-Sa 10:00-15:00; Su 09:00-13:00",
    "phone": "+389 2 3117734",
    "tourism": "museum",
    "website": "https://msu.mk/home/",
    "wikidata": "Q3329592",
    "wikimedia_commons": "Category:Contemporary Art Museum (North Macedonia)",
    "wikipedia": "mk:Музеј на современата уметност (Скопје)"
  }
},
{
  "type": "way",
  "id": 33096272,
  "nodes": [
    373445223,
    373445227,
    373445235,
    373445241,
    373445248,
    373445223
  ],
  "tags": {
    "amenity": "place_of_worship",
    "denomination": "orthodox",
    "name": "Sv.Atanasij",
    "name:mk": "св. Атанасиј",
    "religion": "christian"
  }
},
{
  "type": "way",
  "id": 33776151,
  "nodes": [
    386713916,
    10133570495,
    5592113009,
    366366729,
    366366728,
    366366727,
    379772738,
    366366726,
    386713922,
    5592113007,
    9265163890,
    9265163888,
    1912564692,
    1912564925,
    379742078,
    379751436,
    380847312,
    6577643449,
    380847310,
    5592112989,
    10133570496,
    386713916
  ],
  "tags": {
    "barrier": "fence",
    "denomination": "orthodox",
    "landuse": "cemetery",
    "religion": "christian"
  }
},
{
  "type": "way",
  "id": 34093853,
  "nodes": [
    390757129,
    390757131,
    2049648779,
    390757134,
    2049648182,
    390757136,
    2049648138,
    390757139,
    2049648441,
    390757142,
    390757144,
    390757147,
    390757150,
    390757152,
    390757159,
    390757162,
    2049648290,
    390757164,
    390757168,
    390757171,
    390757129
  ],
  "tags": {
    "amenity": "theatre",
    "historic": "archaeological_site",
    "int_name": "Antički Teatar",
    "name": "Антички театар",
    "name:en": "Ancient Theatre",
    "name:fr": "Théatre antique",
    "name:lt": "Antikinis Teatras",
    "name:pl": "Teatr Antyczny",
    "name:tr": "Antik Tiyatro",
    "tourism": "attraction",
    "wheelchair": "no",
    "wikidata": "Q3180446",
    "wikipedia": "mk:Антички театар (Охрид)"
  }
},
{
  "type": "way",
  "id": 34094279,
  "nodes": [
    390770928,
    6754181014,
    11232405552,
    6754181054,
    6754181016,
    6754181017,
    6754181015,
    6754181018,
    6754181019,
    6754181021,
    6754181020,
    6754181010,
    6754181009,
    6754181008,
    6754181007,
    6754181011,
    6754181012,
    6754181034,
    2049776767,
    2049776581,
    2049776216,
    2049776577,
    2049776625,
    2049776917,
    2049776921,
    534926233,
    6754181079,
    390770931,
    6754180992,
    6781576800,
    390770933,
    6754181003,
    2049792470,
    6754180991,
    6754180986,
    2049792503,
    4367024875,
    4367024878,
    4367024877,
    4367024876,
    4367024869,
    4367024870,
    4367024871,
    4367024872,
    4367024873,
    4367024874,
    390770928
  ],
  "tags": {
    "archaeological_site": "city",
    "historic": "archaeological_site",
    "int_name": "Plaošnik",
    "name": "Плаошник",
    "name:en": "Plaoshnik",
    "name:fr": "Site dit « Lieu plat sur la colline » (Plaoshnik)",
    "ruins": "wall",
    "tourism": "attraction",
    "wikidata": "Q7201685",
    "wikipedia": "mk:Плаошник"
  }
},
{
  "type": "way",
  "id": 34094478,
  "nodes": [
    390777018,
    6754181075,
    6754181076,
    6754181077,
    390777019,
    6754181069,
    6754181070,
    390777020,
    6754181071,
    6754181078,
    6754181072,
    6754181074,
    6754181073,
    390777021,
    390777018
  ],
  "tags": {
    "amenity": "place_of_worship",
    "building": "church",
    "denomination": "macedonian_orthodox",
    "int_name": "St. Clement and Panteleimon",
    "name": "Св. Климент и Пантелејмон",
    "name:en": "St. Clement and Panteleimon",
    "name:fr": "Église Saints-Clément-et-Pantaleimon",
    "name:tr": "St. Clement and Panteleimon",
    "religion": "christian",
    "tourism": "attraction",
    "wikipedia": "mk:Црква „Св. Климент и Пантелејмон“ - Охрид"
  }
},
{
  "type": "way",
  "id": 35065179,
  "nodes": [
    5095576108,
    5095576107,
    411271289,
    2662892434,
    2662892433,
    2662892432,
    2662892431,
    411271290,
    2662892436,
    5095576112,
    2662892435,
    3761492621,
    3773200311,
    3761492620,
    3761492619,
    411271291,
    5095576108
  ],
  "tags": {
    "denomination": "macedonian_orthodox",
    "landuse": "cemetery",
    "religion": "christian"
  }
},
{
  "type": "way",
  "id": 37866487,
  "nodes": [
    444334967,
    1944168602,
    444334986,
    1944168231,
    1944168999,
    444334987,
    1944168905,
    1944168390,
    1944169018,
    1944168786,
    1944168729,
    444334988,
    444334967
  ],
  "tags": {
    "addr:housename": "82",
    "addr:street": "Илинденска",
    "amenity": "place_of_worship",
    "denomination": "orthodox",
    "int_name": "Sv. Ǵorģi",
    "name": "Св. Ѓорѓи",
    "name:en": "St. George",
    "religion": "christian"
  }
},
{
  "type": "way",
  "id": 37910532,
  "nodes": [
    444973442,
    444973443,
    444973444,
    9627840083,
    9627840082,
    9627840081,
    444973446,
    444973448,
    444973450,
    1942841581,
    1942841720,
    1942841717,
    444973452,
    444973453,
    9609629422,
    9609629423,
    444973454,
    444973442
  ],
  "tags": {
    "int_name": "Gradski Grobiša",
    "landuse": "cemetery",
    "name": "Градски гробишта",
    "name:en": "City Cemetery",
    "religion": "christian"
  }
},
{
  "type": "way",
  "id": 37956139,
  "nodes": [
    445811700,
    3612989296,
    3612982766,
    3612989303,
    3612982782,
    3612982725,
    445811707,
    3612982745,
    3612989333,
    445811710,
    3612989302,
    445811716,
    445811719,
    3612989304,
    10159675327,
    445811723,
    10159675328,
    447878204,
    10159661378,
    10159661379,
    10159661381,
    10159661382,
    3612989317,
    445811700
  ],
  "tags": {
    "historic": "archaeological_site",
    "int_name": "Heraklea Linkestis",
    "name": "Хераклеа Линкестис",
    "name:en": "Heraclea Lyncestis",
    "name:fr": "Heraclea Lyncestis",
    "ruins": "yes",
    "tourism": "attraction",
    "wikidata": "Q1142395"
  }
},
{
  "type": "way",
  "id": 38575706,
  "nodes": [
    456922152,
    456922153,
    456922154,
    456922155,
    456922157,
    456922159,
    456922160,
    456922161,
    456922152
  ],
  "tags": {
    "amenity": "place_of_worship",
    "building": "yes",
    "int_name": "Jeni Džamija",
    "name": "Јени Џамија",
    "name:en": "Yeni Mosque",
    "religion": "muslim",
    "tourism": "attraction",
    "wikidata": "Q1580610"
  }
},
{
  "type": "way",
  "id": 38580676,
  "nodes": [
    456998883,
    456998885,
    456998886,
    456998887,
    456998883
  ],
  "tags": {
    "building": "yes",
    "int_name": "Magaza",
    "name": "Магаза",
    "name:en": "Magaza gallery",
    "tourism": "museum"
  }
},
{
  "type": "way",
  "id": 38581757,
  "nodes": [
    457013001,
    457013002,
    457013003,
    457013004,
    457013006,
    457013007,
    457013008,
    457013009,
    457013001
  ],
  "tags": {
    "amenity": "place_of_worship",
    "building": "yes",
    "int_name": "Isak Džamija",
    "name": "Исак Џамија",
    "name:en": "Isak Mosque",
    "religion": "muslim",
    "wikidata": "Q3324872",
    "wikipedia": "en:Ishak Çelebi Mosque"
  }
},
{
  "type": "way",
  "id": 38582552,
  "nodes": [
    457023668,
    8894631950,
    457022098,
    457022102,
    457022106,
    8894631949,
    457022109,
    457022113,
    457022115,
    457022077,
    457022082,
    457022086,
    457022089,
    457022092,
    457022095,
    457023666,
    8894631945,
    457023671,
    457023672,
    457023673,
    8894631946,
    8894631947,
    8894631948,
    457023668
  ],
  "tags": {
    "amenity": "place_of_worship",
    "building": "yes",
    "building:levels": "2",
    "denomination": "macedonian_orthodox",
    "name": "Св. Димитриј Солунски",
    "name:en": "St. Demetrius of Salonica",
    "name:mk": "Св. Димитриј Солунски",
    "religion": "christian",
    "wikidata": "Q12293146",
    "wikipedia": "mk:Црква „Св. Димитриј“ - Битола"
  }
},
{
  "type": "way",
  "id": 38765140,
  "nodes": [
    459673946,
    459673947,
    459673948,
    459673949,
    459673950,
    459673951,
    459673952,
    459673954,
    459673955,
    459673956,
    459673957,
    459673958,
    459673959,
    459673946
  ],
  "tags": {
    "addr:city": "Cкoпje",
    "addr:city:en": "Skopje",
    "addr:country": "MK",
    "addr:postcode": "1000",
    "addr:street": "Петар Попарсов",
    "alt_name": "Црква „Свето Срце Исусово“",
    "amenity": "place_of_worship",
    "building": "church",
    "contact:mobile": "+ 38923229167",
    "contact:phone": "+ 38923220622",
    "denomination": "catholic",
    "name": "Католичка црква Пресвето срце Исусово",
    "name:en": "Sacred Heart of Jesus",
    "name:pl": "Kościół Najświętszego Serca Pana Jezusa",
    "religion": "christian",
    "wikidata": "Q11737299",
    "wikimedia_commons": "Category:Holy Heart of Jesus Church (Skopje)",
    "wikipedia": "en:Cathedral of the Sacred Heart of Jesus (Skopje)"
  }
},
{
  "type": "way",
  "id": 40413629,
  "nodes": [
    488853496,
    488853498,
    488853500,
    488853503,
    488853504,
    488853507,
    488853509,
    2142522055,
    488853511,
    488853496
  ],
  "tags": {
    "denomination": "orthodox",
    "landuse": "cemetery",
    "name": "Novi gradski grobishta Kriva Palanka",
    "name:mk": "Нови градски гробишта Крива Паланка",
    "religion": "christian"
  }
},
{
  "type": "way",
  "id": 40413632,
  "nodes": [
    488853577,
    9809690706,
    9809690707,
    9809690709,
    9809690710,
    9809690708,
    488853579,
    9809690701,
    9809690714,
    9809690715,
    9809690716,
    488853581,
    9809690713,
    9809690712,
    9809690711,
    488853582,
    9809690705,
    9809690702,
    9809690704,
    9809690703,
    488853577
  ],
  "tags": {
    "denomination": "orthodox",
    "landuse": "cemetery",
    "name": "Stari gradski grobishta Kriva Palanka",
    "name:mk": "Стари градски гробишта Крива Паланка",
    "religion": "christian"
  }
},
{
  "type": "way",
  "id": 41753625,
  "nodes": [
    514326813,
    514326816,
    514326819,
    514326821,
    514326824,
    514326827,
    514326829,
    514326831,
    514326836,
    514326813
  ],
  "tags": {
    "landuse": "cemetery",
    "name": "Христијански гробишта",
    "name:en": "Christian cemetery",
    "religion": "christian"
  }
},
{
  "type": "way",
  "id": 44026574,
  "nodes": [
    559750910,
    559750918,
    559750922,
    4687367508,
    4687367510,
    4687367511,
    4687367509,
    559750923,
    559750910
  ],
  "tags": {
    "addr:city": "Cкoпje",
    "addr:city:en": "Skopje",
    "addr:country": "MK",
    "addr:postcode": "1000",
    "amenity": "place_of_worship",
    "building": "mosque",
    "name": "Султан Муратова џамија",
    "name:sq": "Xhamija e Sulltan Muratit",
    "name:tr": "Sultan Murat cami",
    "religion": "muslim",
    "wikidata": "Q2121610",
    "wikimedia_commons": "Category:Sultan Murat Mosque (Skopje)",
    "wikipedia": "en:Sultan Murad Mosque"
  }
},
{
  "type": "way",
  "id": 44038732,
  "nodes": [
    559905942,
    559905944,
    559905945,
    1859857522,
    1859857517,
    1859857563,
    1859857553,
    559905946,
    559905942
  ],
  "tags": {
    "addr:city": "Cкoпje",
    "addr:city:en": "Skopje",
    "addr:country": "MK",
    "addr:postcode": "1000",
    "amenity": "place_of_worship",
    "building": "mosque",
    "name": "Иса-бегова џамија",
    "name:sq": "Xhamija e Isa Begit",
    "religion": "muslim",
    "tourism": "attraction",
    "wikidata": "Q1509599",
    "wikimedia_commons": "Category:Isa Bey Mosque (Skopje)"
  }
},
{
  "type": "way",
  "id": 44038943,
  "nodes": [
    559906976,
    559906977,
    559906979,
    559906981,
    559906976
  ],
  "tags": {
    "addr:city": "Cкoпje",
    "addr:city:en": "Skopje",
    "addr:country": "MK",
    "addr:postcode": "1000",
    "alt_name": "Исхак-бегова Џамија",
    "amenity": "place_of_worship",
    "building": "mosque",
    "int_name": "Aladža džamija",
    "name": "Алаџа-џамија",
    "name:en": "Allaxha Mosque",
    "name:mk": "Алаџа-џамија",
    "name:sq": "Xhamija e Allaxhes",
    "name:tr": "Alaca Camii",
    "religion": "muslim",
    "wikidata": "Q1009860",
    "wikimedia_commons": "Category:Ishak Bey Mosque (Skopje)"
  }
},
{
  "type": "way",
  "id": 44039295,
  "nodes": [
    559909598,
    1864614270,
    1864614252,
    559909601,
    1864614251,
    559909602,
    1864614280,
    559909603,
    1864614268,
    559909598
  ],
  "tags": {
    "addr:city": "Cкoпje",
    "addr:city:en": "Skopje",
    "addr:country": "MK",
    "addr:postcode": "1000",
    "addr:street": "Цветан Димов",
    "amenity": "place_of_worship",
    "building": "mosque",
    "int_name": "Jaja-pašina džamija",
    "name": "Јаја-пашина џамија",
    "name:en": "Yaya Pacha Mosque",
    "name:mk": "Yahya paşa cami-Јаја-пашина џамија",
    "name:sq": "Xhamia e Jahja Pashës",
    "religion": "muslim",
    "tourism": "attraction"
  }
},
{
  "type": "way",
  "id": 123273629,
  "nodes": [
    1375310224,
    1375310282,
    1375310263,
    1375310243,
    1375310224
  ],
  "tags": {
    "addr:city": "Cкoпje",
    "addr:city:en": "Skopje",
    "addr:country": "MK",
    "addr:postcode": "1000",
    "amenity": "place_of_worship",
    "building": "yes",
    "religion": "muslim"
  }
},
{
  "type": "way",
  "id": 123273638,
  "nodes": [
    1375310254,
    1375310192,
    369669415,
    1375310274,
    1375310254
  ],
  "tags": {
    "addr:city": "Cкoпje",
    "addr:city:en": "Skopje",
    "addr:country": "MK",
    "addr:postcode": "1000",
    "amenity": "place_of_worship",
    "building": "monastery",
    "denomination": "orthodox",
    "int_name": "Manastir Sv. Pantelejmon",
    "layer": "2",
    "name": "Манастир Св. Пантелејмон",
    "name:en": "Monastery Sv. Pantelejmon",
    "place_of_worship:type": "monastery",
    "religion": "christian",
    "tourism": "attraction",
    "wikipedia": "en:Church of St. Panteleimon (Gorno Nerezi)"
  }
},
{
  "type": "way",
  "id": 131232665,
  "nodes": [
    1444796808,
    1444796805,
    1444796810,
    1444796809,
    1444796806,
    1444796800,
    1444796808
  ],
  "tags": {
    "amenity": "place_of_worship",
    "denomination": "orthodox",
    "name": "Црква Св. Ѓорги",
    "religion": "christian"
  }
},
{
  "type": "way",
  "id": 132038486,
  "nodes": [
    1452855125,
    1452854937,
    1452855046,
    1452855149,
    1452855125
  ],
  "tags": {
    "amenity": "place_of_worship",
    "religion": "christian"
  }
},
{
  "type": "way",
  "id": 144067203,
  "nodes": [
    1576507440,
    1576507431,
    1576507424,
    1576507436,
    1576507441,
    1576507440
  ],
  "tags": {
    "amenity": "place_of_worship",
    "religion": "muslim"
  }
},
{
  "type": "way",
  "id": 144067204,
  "nodes": [
    1576507823,
    1576507824,
    1576507814,
    1576507797,
    1576507796,
    1576507810,
    1576507819,
    1576507823
  ],
  "tags": {
    "amenity": "place_of_worship",
    "religion": "muslim"
  }
},
{
  "type": "way",
  "id": 150596710,
  "nodes": [
    1634988564,
    1634988593,
    1634988538,
    1634988601,
    1634988534,
    1634988556,
    1634988488,
    1634988673,
    1634988461,
    1634988521,
    1634988655,
    1634988552,
    1634988468,
    1634988576,
    1634988617,
    1634988619,
    1634988558,
    1634988570,
    1634988691,
    1634988684,
    1634988588,
    1634988598,
    1634988574,
    1634988564
  ],
  "tags": {
    "building": "yes",
    "name": "Спомен Костурница",
    "name:en": "Kosturnica Memorial",
    "name:int": "Spomen Kosturnica",
    "tourism": "museum"
  }
},
{
  "type": "way",
  "id": 155870490,
  "nodes": [
    1682245737,
    1682245740,
    1682245703,
    1682245699,
    1682245737
  ],
  "tags": {
    "amenity": "place_of_worship",
    "building": "church",
    "denomination": "orthodox",
    "int_name": "Sveta Bogorodica",
    "name": "Св. Богородица",
    "name:en": "Saint Mary's Church",
    "name:mk": "Св. Богородица",
    "religion": "christian"
  }
},
{
  "type": "way",
  "id": 158683818,
  "nodes": [
    1708396500,
    1708396496,
    1708396493,
    1708396499,
    1708396494,
    1708396502,
    1708396501,
    1708396495,
    1708396497,
    1708396498,
    1708396500
  ],
  "tags": {
    "amenity": "place_of_worship",
    "int_name": "Sveti Nikola",
    "name": "Свети Никола",
    "religion": "christian"
  }
},
{
  "type": "way",
  "id": 159356146,
  "nodes": [
    1714703524,
    1714703527,
    1714703522,
    1714703517,
    1714703521,
    1714703515,
    1714703496,
    1714703519,
    1714703511,
    2835971743,
    1714703514,
    1714703524
  ],
  "tags": {
    "amenity": "place_of_worship",
    "int_name": "Sveta Troica",
    "name": "Света Троица",
    "religion": "christian"
  }
},
{
  "type": "way",
  "id": 161469536,
  "nodes": [
    1734366828,
    1734366825,
    1734366829,
    1734366821,
    1734366828
  ],
  "tags": {
    "amenity": "place_of_worship",
    "denomination": "orthodox",
    "name": "Sv. Petka-Kuckovo",
    "name:mk": "Црква „Св. Петка“ - Кучково",
    "religion": "christian",
    "wikidata": "Q24074928",
    "wikimedia_commons": "Category:St. Petka Church (Kučkovo)",
    "wikipedia": "mk:Црква „Св. Петка“ - Кучково"
  }
},
{
  "type": "way",
  "id": 161469646,
  "nodes": [
    1734367867,
    1734367866,
    1734367868,
    1734367869,
    1734367867
  ],
  "tags": {
    "amenity": "place_of_worship",
    "denomination": "orthodox",
    "name": "Sv. Nedela-Kuckovo",
    "name:mk": "Црква „Св. Недела“ - Кучково",
    "religion": "christian",
    "wikidata": "Q24074970",
    "wikimedia_commons": "Category:St. Nedela Church (Kučkovo)",
    "wikipedia": "mk:Црква „Св. Недела“ - Кучково"
  }
},
{
  "type": "way",
  "id": 161469959,
  "nodes": [
    1734371364,
    1734371361,
    1734371357,
    1734371354,
    1734371364
  ],
  "tags": {
    "amenity": "place_of_worship",
    "name": "Sv. Krstovden-Kuckovo",
    "religion": "christian"
  }
},
{
  "type": "way",
  "id": 161538982,
  "nodes": [
    1735110272,
    1735110432,
    1735110396,
    1735110305,
    1735110272
  ],
  "tags": {
    "amenity": "place_of_worship",
    "denomination": "orthodox",
    "religion": "christian"
  }
},
{
  "type": "way",
  "id": 166531109,
  "nodes": [
    1779771726,
    1779771730,
    1779771723,
    1779771713,
    1779771724,
    1779771725,
    1779771727,
    1779771722,
    1779771729,
    1779771732,
    1779771726
  ],
  "tags": {
    "amenity": "place_of_worship",
    "building": "yes",
    "name": "Татар Синан Бег џамија",
    "name:bg": "Татар Синан бег джамия",
    "name:en": "Tatar Sinan Pasha Mosque",
    "name:mk": "Татар Синан Бег џамија",
    "name:sq": "Xhamia Tatar Sinan Pasha",
    "religion": "muslim",
    "wikidata": "Q5398092",
    "wikipedia": "mk:Татар Синан Бег џамија (Куманово)"
  }
},
{
  "type": "way",
  "id": 167661160,
  "nodes": [
    1790426947,
    1790426945,
    1790426949,
    1790426943,
    1790426947
  ],
  "tags": {
    "building": "yes",
    "denomination": "methodist",
    "name": "Evangelic-Methodist Church",
    "religion": "christian"
  }
},
{
  "type": "way",
  "id": 169348417,
  "nodes": [
    1805181742,
    9655831543,
    1805181745,
    1805181746,
    1805181743,
    8894708780,
    1805181738,
    8894708779,
    1805181737,
    1805181736,
    8894708763,
    1805181734,
    1805181733,
    1805181735,
    1805181739,
    1805181740,
    8894708770,
    1805181741,
    9655831544,
    1805181742
  ],
  "tags": {
    "barrier": "fence",
    "denomination": "orthodox",
    "landuse": "cemetery",
    "name": "Буковски Гробишта",
    "name:en": "Cemetery of Bukovo",
    "name:mk": "Буковски Гробишта",
    "religion": "christian"
  }
},
{
  "type": "way",
  "id": 171384374,
  "nodes": [
    1824158683,
    1824158681,
    1824158688,
    1824158679,
    1824158678,
    1824158680,
    1824158689,
    1824158686,
    1824158684,
    1824158682,
    1824158685,
    1824158687,
    1824158683
  ],
  "tags": {
    "amenity": "place_of_worship",
    "building": "church",
    "denomination": "orthodox",
    "name": "Св. Кирил и Методиј",
    "name:en": "Saints Cyril and Methodius",
    "religion": "christian",
    "wikipedia": "mk:Црква „Св. Кирил и Методиј“ - Ресен"
  }
},
{
  "type": "way",
  "id": 172171547,
  "nodes": [
    1831061821,
    1831061818,
    1831061820,
    1831061819,
    1831061821
  ],
  "tags": {
    "addr:city": "Cкoпje",
    "addr:city:en": "Skopje",
    "addr:country": "MK",
    "addr:postcode": "1000",
    "amenity": "arts_centre",
    "building": "yes",
    "email": "contact@nationalgallery.mk",
    "fee": "yes",
    "int_name": "Nacionalna Galerija -Daut Pašin Amam",
    "name": "Национална галерија „Даут-пашин амам“",
    "name:en": "Daut Pasha Hamam National Gallery",
    "opening_hours": "Tu-Su 10:00-18:00",
    "phone": "+389 2 3133102",
    "tourism": "museum",
    "website": "https://nationalgallery.mk/",
    "wikipedia": "en:National Gallery of Macedonia"
  }
},
{
  "type": "way",
  "id": 172178304,
  "nodes": [
    1831108086,
    1831108082,
    1831108084,
    1831108083,
    5841674948,
    5841674949,
    5841674950,
    5841674947,
    1831108086
  ],
  "tags": {
    "addr:city": "Cкoпje",
    "addr:city:en": "Skopje",
    "addr:country": "MK",
    "addr:postcode": "1000",
    "amenity": "place_of_worship",
    "building": "mosque",
    "int_name": "Mustafa-pašina džamija",
    "name": "Мустафа-пашина џамија",
    "name:bg": "Мустафа паша джамия",
    "name:de": "Mustafa-Pascha-Moschee",
    "name:en": "Mustafa Pasha's Mosque",
    "name:fr": "Mosquée Mustafa Pacha",
    "name:mk": "Мустафа-пашина џамија",
    "name:pl": "Meczet Mustafy Paszy",
    "name:ru": "Мечеть Мустафы-паши",
    "name:rw": "Umusigiti wa Mustafa Pasha",
    "name:sq": "Xhamia e Mustafë Pashës",
    "name:sr": "Мустафа-пашина џамија",
    "name:tr": "Mustafa Paşa Camii",
    "religion": "muslim",
    "tourism": "attraction",
    "wikidata": "Q1267418",
    "wikimedia_commons": "Category:Mustafa Pasha Mosque (Skopje)",
    "wikipedia": "mk:Мустафа-пашина џамија"
  }
},
{
  "type": "way",
  "id": 172180530,
  "nodes": [
    1831127085,
    1831127083,
    5339314471,
    1831127084,
    1831127081,
    1831127085
  ],
  "tags": {
    "addr:city": "Cкoпje",
    "addr:city:en": "Skopje",
    "addr:country": "MK",
    "addr:housenumber": "1",
    "addr:postcode": "1000",
    "addr:street": "11 Март",
    "building": "public",
    "building:levels": "3",
    "email": "mmb@mmb.org.mk",
    "fax": "+389 2 3256 668",
    "fee": "yes",
    "int_name": "Muzej na Makedonskata borba",
    "name": "Музеј на македонската борба",
    "name:de": "Museum des mazedonischen Kampfes",
    "name:en": "Museum of the Macedonian struggle",
    "name:tr": "Museum of the",
    "opening_hours": "Tu-Su 10:00-18:00",
    "phone": "+389 2 3256 667",
    "roof:levels": "0",
    "roof:shape": "hipped",
    "tourism": "museum",
    "website": "http://mmb.org.mk/w/",
    "wheelchair": "limited",
    "wikidata": "Q986531",
    "wikimedia_commons": "Category:Museum of the Macedonian Struggle (Skopje)",
    "wikipedia": "en:Museum of the Macedonian Struggle (Skopje)"
  }
},